$GNGGA,100155.000,4855.8115,N,00219.5582,E,2,19,0.58,30.2,M,47.3,M,0.0,0*5A
$GPGSA,A,3,29,11,05,30,07,09,04,16,06,,,,0.89,0.58,0.67,1*14
$GLGSA,A,3,81,66,82,68,76,83,77,67,75,,,,0.89,0.58,0.67,2*09
$GAGSA,A,3,11,,,,,,,,,,,,0.89,0.58,0.67,3*01
$GPGSV,3,1,12,09,61,062,36.8,11,53,275,29.0,07,53,154,35.6,06,49,211,29.2,1*6E
$GPGSV,3,2,12,20,40,301,26.9,49,33,176,30.0,30,29,185,32.7,04,27,065,25.2,1*64
$GPGSV,3,3,12,16,11,051,22.3,05,07,300,19.9,29,06,336,13.6,26,05,026,,1*73
$GLGSV,3,1,10,66,57,049,29.2,67,52,298,32.2,82,45,262,31.4,76,37,097,30.1,1*79
$GLGSV,3,2,10,83,33,320,13.3,75,22,031,27.8,81,20,210,36.4,77,17,144,13.8,1*7A
$GLGSV,3,3,10,65,10,081,,68,07,273,18.8,1*62
$GAGSV,3,1,9,04,74,263,,11,56,252,18.8,10,47,206,,19,42,065,,7*5A
$GAGSV,3,2,9,36,29,315,,12,28,184,,09,22,251,,21,17,083,,7*47
$GAGSV,3,3,9,27,11,033,,7*7F
$GNRMC,100155.000,A,4855.8115,N,00219.5582,E,42.253,291.37,311023,,,D,V*00
$GNVTG,291.37,T,,M,42.253,N,78.295,K,D*2B
$GNDTM,W84,,0.0,N,0.0,E,0.0,W84*71
$GNACCURACY,2.1,4.1,2.3,6.9*1C
$GNGST,100155.000,4.2,3.6,3.4,174.0,3.6,3.4,6.9*72
$GPEPE,04.92,06.91*46
$GPGBS,100155.000,3.56,3.39,6.91,,,,,,*46
$PKTHEAD,1,6589645,206
$VECINFO,1,0.00,0.00,0.00,0.00
$SNSYAW,100,-1.000000,0,0.000000,1,0.000000,1,0.000000,1,0.000000,1
$SNSRAWYAW,100,-0.480000,0,-0.560000,0,-0.560000,0,-0.560000,0,-0.720000,0
$SNSPULS,80,77,0,77,0,78,0,78,0
$PKTHEAD,2,6589647,3,2.325885,48.930216,30.00,22.15,291.02,1,10,1698746515099
$PKTHEAD,1,6589746,207
$VECINFO,1,0.00,0.00,0.00,0.00
$SNSYAW,100,-1.200000,0,0.000000,1,0.000000,1,0.000000,1,0.000000,1
$SNSRAWYAW,100,-0.880000,0,-0.960000,0,-0.960000,0,-0.960000,0,-0.960000,0
$SNSPULS,120,117,0,117,0,116,0,116,0
$PKTHEAD,1,6589843,208
$VECINFO,1,0.00,0.00,0.00,0.00
$SNSYAW,100,-1.300000,0,0.000000,1,0.000000,1,0.000000,1,0.000000,1
$SNSRAWYAW,100,-1.120000,0,-1.200000,0,-1.120000,0,-0.960000,0,-1.120000,0
$SNSPULS,80,78,0,78,0,78,0,78,0
$PKTHEAD,2,6589844,3,2.325828,48.930230,30.00,22.18,291.30,1,10,1698746515297
$PKTHEAD,1,6589944,209
$VECINFO,1,0.00,0.00,0.00,0.00
$SNSYAW,100,-1.500000,0,0.000000,1,0.000000,1,0.000000,1,0.000000,1
$SNSRAWYAW,100,-1.200000,0,-1.360000,0,-1.200000,0,-1.200000,0,-1.200000,0
$SNSPULS,120,117,0,116,0,116,0,116,0
$PKTHEAD,1,6590046,210
$VECINFO,1,0.00,0.00,0.00,0.00
$SNSYAW,100,-1.500000,0,0.000000,1,0.000000,1,0.000000,1,0.000000,1
$SNSRAWYAW,100,-1.360000,0,-1.440000,0,-1.360000,0,-1.200000,0,-1.200000,0
$SNSPULS,80,78,0,78,0,78,0,77,0
$PKTHEAD,2,6590048,3,2.325771,48.930244,30.00,22.22,291.58,1,10,1698746515500
$PKTHEAD,1,6590147,211
$VECINFO,1,0.00,0.00,0.00,0.00
$SNSYAW,100,-1.300000,0,0.000000,1,0.000000,1,0.000000,1,0.000000,1
$SNSRAWYAW,100,-1.360000,0,-1.360000,0,-1.360000,0,-1.360000,0,-1.200000,0
$SNSPULS,120,117,0,117,0,116,0,116,0
$PKTHEAD,1,6590243,212
$VECINFO,1,0.00,0.00,0.00,0.00
$SNSYAW,100,-1.500000,0,0.000000,1,0.000000,1,0.000000,1,0.000000,1
$SNSRAWYAW,100,-1.200000,0,-1.360000,0,-1.440000,0,-1.440000,0,-1.360000,0
$SNSPULS,80,77,0,77,0,78,0,78,0
$PKTHEAD,2,6590244,3,2.325715,48.930259,30.00,22.24,291.86,1,10,1698746515697
$PKTHEAD,1,6590344,213
$VECINFO,1,0.00,0.00,0.00,0.00
$SNSYAW,100,-1.500000,0,0.000000,1,0.000000,1,0.000000,1,0.000000,1
$SNSRAWYAW,100,-1.360000,0,-1.200000,0,-1.200000,0,-1.200000,0,-1.360000,0
$SNSPULS,120,117,0,117,0,116,0,116,0
$PKTHEAD,1,6590446,214
$VECINFO,1,0.00,0.00,0.00,0.00
$SNSYAW,100,-1.700000,0,0.000000,1,0.000000,1,0.000000,1,0.000000,1
$SNSRAWYAW,100,-1.360000,0,-1.440000,0,-1.440000,0,-1.440000,0,-1.440000,0
$SNSPULS,80,78,0,78,0,78,0,78,0
$PKTHEAD,2,6590447,3,2.325659,48.930274,30.00,22.25,292.13,1,10,1698746515900
$PKTHEAD,1,6590542,215
$VECINFO,1,0.00,0.00,0.00,0.00
$SNSYAW,100,-1.600000,0,0.000000,1,0.000000,1,0.000000,1,0.000000,1
$SNSRAWYAW,100,-1.600000,0,-1.440000,0,-1.360000,0,-1.200000,0,-1.360000,0
$SNSPULS,120,117,0,116,0,117,0,116,0
$PKTHEAD,0,6590561,111
$GNGGA,100156.000,4855.8156,N,00219.5416,E,2,19,0.63,30.0,M,47.3,M,0.0,0*58
$GPGSA,A,3,11,30,07,09,04,16,06,,,,,,1.15,0.63,0.96,1*18
$GLGSA,A,3,81,66,82,68,76,83,77,67,75,,,,1.15,0.63,0.96,2*0B
$GAGSA,A,3,10,11,04,,,,,,,,,,1.15,0.63,0.96,3*06
$GPGSV,3,1,12,09,61,062,39.7,11,53,275,29.3,07,53,154,37.1,06,49,211,29.4,1*6E
$GPGSV,3,2,12,20,40,301,27.5,49,33,176,32.0,30,29,185,37.9,04,27,065,25.2,1*60
$GPGSV,3,3,12,16,11,051,22.3,05,07,300,28.2,29,06,336,12.9,26,05,026,,1*74
$GLGSV,3,1,10,66,57,049,34.9,67,52,298,36.0,82,45,262,31.7,76,37,097,29.2,1*70
$GLGSV,3,2,10,83,33,320,13.3,75,22,031,30.8,81,20,210,29.8,77,17,144,12.5,1*72
$GLGSV,3,3,10,65,10,081,,68,07,273,18.6,1*6C
$GAGSV,3,1,9,04,74,263,25.6,11,56,252,19.9,10,47,206,26.0,19,42,065,,7*5F
$GAGSV,3,2,9,36,29,315,,12,28,184,,09,22,251,,21,17,083,,7*47
$GAGSV,3,3,9,27,11,033,,7*7F
$GNRMC,100156.000,A,4855.8156,N,00219.5416,E,42.924,291.83,311023,,,D,V*0C
$GNVTG,291.83,T,,M,42.924,N,79.538,K,D*2E
$GNDTM,W84,,0.0,N,0.0,E,0.0,W84*71
$GNACCURACY,2.2,6.7,3.3,7.1*13
$GNGST,100156.000,4.2,4.1,3.4,169.8,4.0,3.4,7.1*7D
$GPEPE,05.28,07.08*47
$GPGBS,100156.000,4.03,3.41,7.08,,,,,,*4C
$PKTHEAD,1,6590644,216
$VECINFO,1,0.00,0.00,0.00,0.00
$SNSYAW,100,-1.700000,0,0.000000,1,0.000000,1,0.000000,1,0.000000,1
$SNSRAWYAW,100,-1.440000,0,-1.440000,0,-1.360000,0,-1.440000,0,-1.600000,0
$SNSPULS,80,78,0,78,0,77,0,77,0
$PKTHEAD,2,6590645,3,2.325613,48.930283,30.00,22.24,292.38,1,10,1698746516083
$PKTHEAD,1,6590745,217
$VECINFO,1,0.00,0.00,0.00,0.00
$SNSYAW,100,-1.600000,0,0.000000,1,0.000000,1,0.000000,1,0.000000,1
$SNSRAWYAW,100,-1.600000,0,-1.600000,0,-1.600000,0,-1.600000,0,-1.440000,0
$SNSPULS,120,116,0,116,0,116,0,116,0
$PKTHEAD,1,6590846,218
$VECINFO,1,0.00,0.00,0.00,0.00
$SNSYAW,100,-1.600000,0,0.000000,1,0.000000,1,0.000000,1,0.000000,1
$SNSRAWYAW,100,-1.440000,0,-1.440000,0,-1.360000,0,-1.360000,0,-1.440000,0
$SNSPULS,80,78,0,78,0,78,0,78,0
$PKTHEAD,2,6590847,3,2.325557,48.930299,30.00,22.24,292.62,1,10,1698746516285
$PKTHEAD,1,6590942,219
$VECINFO,1,0.00,0.00,0.00,0.00
$SNSYAW,100,-1.800000,0,0.000000,1,0.000000,1,0.000000,1,0.000000,1
$SNSRAWYAW,100,-1.440000,0,-1.600000,0,-1.600000,0,-1.600000,0,-1.600000,0
$SNSPULS,120,116,0,116,0,116,0,115,0
$PKTHEAD,1,6591043,220
$VECINFO,1,0.00,0.00,0.00,0.00
$SNSYAW,100,-1.800000,0,0.000000,1,0.000000,1,0.000000,1,0.000000,1
$SNSRAWYAW,100,-1.680000,0,-1.600000,0,-1.600000,0,-1.600000,0,-1.600000,0
$SNSPULS,80,78,0,77,0,77,0,78,0
$PKTHEAD,2,6591044,3,2.325501,48.930314,30.00,22.23,292.92,1,10,1698746516482
$PKTHEAD,1,6591145,221
$VECINFO,1,0.00,0.00,0.00,0.00
$SNSYAW,100,-1.700000,0,0.000000,1,0.000000,1,0.000000,1,0.000000,1
$SNSRAWYAW,100,-1.680000,0,-1.680000,0,-1.680000,0,-1.600000,0,-1.680000,0
$SNSPULS,120,116,0,116,0,116,0,115,0
$PKTHEAD,1,6591246,222
$VECINFO,1,0.00,0.00,0.00,0.00
$SNSYAW,100,-2.000000,0,0.000000,1,0.000000,1,0.000000,1,0.000000,1
$SNSRAWYAW,100,-1.600000,0,-1.600000,0,-1.600000,0,-1.600000,0,-1.680000,0
$SNSPULS,80,78,0,77,0,78,0,77,0
$PKTHEAD,2,6591247,3,2.325445,48.930329,30.00,22.21,293.24,1,10,1698746516685
$PKTHEAD,1,6591347,223
$VECINFO,1,0.00,0.00,0.00,0.00
$SNSYAW,100,-2.000000,0,0.000000,1,0.000000,1,0.000000,1,0.000000,1
$SNSRAWYAW,100,-1.840000,0,-1.840000,0,-1.840000,0,-1.840000,0,-1.840000,0
$SNSPULS,120,116,0,116,0,115,0,116,0
$PKTHEAD,1,6591443,224
$VECINFO,1,0.00,0.00,0.00,0.00
$SNSYAW,100,-2.000000,0,0.000000,1,0.000000,1,0.000000,1,0.000000,1
$SNSRAWYAW,100,-1.840000,0,-1.840000,0,-1.840000,0,-1.680000,0,-1.840000,0
$SNSPULS,80,77,0,78,0,78,0,77,0
$PKTHEAD,2,6591444,3,2.325390,48.930345,30.00,22.18,293.59,1,10,1698746516882
$PKTHEAD,1,6591547,225
$VECINFO,1,0.00,0.00,0.00,0.00
$SNSYAW,100,-2.000000,0,0.000000,1,0.000000,1,0.000000,1,0.000000,1
$SNSRAWYAW,100,-1.920000,0,-1.920000,0,-1.840000,0,-1.840000,0,-1.840000,0
$SNSPULS,120,116,0,115,0,116,0,115,0
$PKTHEAD,0,6591560,112
$GNGGA,100157.000,4855.8216,N,00219.5230,E,2,21,0.58,29.1,M,47.3,M,0.0,0*56
$GPGSA,A,3,11,05,20,30,07,09,04,16,06,,,,0.88,0.58,0.66,1*1D
$GLGSA,A,3,81,66,82,68,76,83,77,67,75,,,,0.88,0.58,0.66,2*09
$GAGSA,A,3,10,11,04,,,,,,,,,,0.88,0.58,0.66,3*04
$GPGSV,3,1,12,09,61,062,42.3,11,53,275,28.8,07,53,154,36.2,06,49,211,28.8,1*63
$GPGSV,3,2,12,20,40,301,27.7,49,33,176,31.0,30,29,185,34.4,04,27,065,28.8,1*68
$GPGSV,3,3,12,16,11,051,22.0,05,07,300,27.1,29,06,336,12.9,26,05,026,,1*7B
$GLGSV,3,1,10,66,57,049,36.4,67,52,298,27.5,82,45,262,25.2,76,37,097,28.6,1*7F
$GLGSV,3,2,10,83,33,320,13.3,75,22,031,28.7,81,20,210,30.6,77,17,144,12.5,1*72
$GLGSV,3,3,10,65,10,081,,68,07,273,18.9,1*63
$GAGSV,3,1,9,04,74,263,29.8,11,56,252,20.4,10,47,206,27.3,19,42,065,,7*58
$GAGSV,3,2,9,36,29,315,,12,28,184,,09,22,251,,21,17,083,,7*47
$GAGSV,3,3,9,27,11,033,,7*7F
$GNRMC,100157.000,A,4855.8216,N,00219.5230,E,42.699,294.92,311023,,,D,V*04
$GNVTG,294.92,T,,M,42.699,N,79.121,K,D*2E
$GNDTM,W84,,0.0,N,0.0,E,0.0,W84*71
$GNACCURACY,2.5,3.8,2.5,7.6*1E
$GNGST,100157.000,4.2,4.8,4.2,106.8,4.3,4.7,7.6*7D
$GPEPE,06.39,07.60*4A
$GPGBS,100157.000,4.28,4.74,7.60,,,,,,*4B
$PKTHEAD,1,6591646,226
$VECINFO,1,0.00,0.00,0.00,0.00
$SNSYAW,100,-2.100000,0,0.000000,1,0.000000,1,0.000000,1,0.000000,1
$SNSRAWYAW,100,-1.920000,0,-1.920000,0,-1.920000,0,-1.920000,0,-1.920000,0
$SNSPULS,80,77,0,77,0,77,0,77,0
$PKTHEAD,2,6591647,3,2.325311,48.930376,29.00,22.16,294.18,1,10,1698746517086
$PKTHEAD,1,6591747,227
$VECINFO,1,0.00,0.00,0.00,0.00
$SNSYAW,100,-2.100000,0,0.000000,1,0.000000,1,0.000000,1,0.000000,1
$SNSRAWYAW,100,-1.920000,0,-1.920000,0,-1.920000,0,-1.920000,0,-1.920000,0
$SNSPULS,120,116,0,116,0,115,0,115,0
$PKTHEAD,1,6591844,228
$VECINFO,1,0.00,0.00,0.00,0.00
$SNSYAW,100,-2.100000,0,0.000000,1,0.000000,1,0.000000,1,0.000000,1
$SNSRAWYAW,100,-1.920000,0,-1.920000,0,-1.920000,0,-1.920000,0,-1.920000,0
$SNSPULS,80,77,0,77,0,77,0,77,0
$PKTHEAD,2,6591845,3,2.325256,48.930392,29.00,22.11,294.78,1,10,1698746517284
$PKTHEAD,1,6591945,229
$VECINFO,1,0.00,0.00,0.00,0.00
$SNSYAW,100,-2.200000,0,0.000000,1,0.000000,1,0.000000,1,0.000000,1
$SNSRAWYAW,100,-1.920000,0,-1.920000,0,-2.080000,0,-2.080000,0,-2.080000,0
$SNSPULS,120,116,0,115,0,116,0,115,0
$PKTHEAD,1,6592047,230
$VECINFO,1,0.00,0.00,0.00,0.00
$SNSYAW,100,-2.100000,0,0.000000,1,0.000000,1,0.000000,1,0.000000,1
$SNSRAWYAW,100,-2.080000,0,-2.080000,0,-2.080000,0,-1.920000,0,-1.920000,0
$SNSPULS,80,77,0,77,0,76,0,77,0
$PKTHEAD,2,6592048,3,2.325201,48.930409,29.00,22.09,295.28,1,10,1698746517487
$PKTHEAD,1,6592143,231
$VECINFO,1,0.00,0.00,0.00,0.00
$SNSYAW,100,-2.100000,0,0.000000,1,0.000000,1,0.000000,1,0.000000,1
$SNSRAWYAW,100,-1.920000,0,-1.920000,0,-1.920000,0,-1.920000,0,-1.920000,0
$SNSPULS,120,115,0,115,0,115,0,114,0
$PKTHEAD,1,6592245,232
$VECINFO,1,0.00,0.00,0.00,0.00
$SNSYAW,100,-2.200000,0,0.000000,1,0.000000,1,0.000000,1,0.000000,1
$SNSRAWYAW,100,-1.920000,0,-1.920000,0,-1.920000,0,-1.840000,0,-1.920000,0
$SNSPULS,80,77,0,76,0,77,0,77,0
$PKTHEAD,2,6592246,3,2.325147,48.930426,29.00,22.06,295.69,1,10,1698746517685
$PKTHEAD,1,6592346,233
$VECINFO,1,0.00,0.00,0.00,0.00
$SNSYAW,100,-2.300000,0,0.000000,1,0.000000,1,0.000000,1,0.000000,1
$SNSRAWYAW,100,-2.080000,0,-2.160000,0,-2.160000,0,-2.080000,0,-2.160000,0
$SNSPULS,120,115,0,115,0,115,0,114,0
$PKTHEAD,1,6592442,234
$VECINFO,1,0.00,0.00,0.00,0.00
$SNSYAW,100,-2.200000,0,0.000000,1,0.000000,1,0.000000,1,0.000000,1
$SNSRAWYAW,100,-2.160000,0,-2.160000,0,-2.080000,0,-1.920000,0,-2.080000,0
$SNSPULS,80,77,0,77,0,76,0,76,0
$PKTHEAD,2,6592444,3,2.325094,48.930443,29.00,22.00,296.13,1,10,1698746517882
$PKTHEAD,1,6592545,235
$VECINFO,1,0.00,0.00,0.00,0.00
$SNSYAW,100,-2.000000,0,0.000000,1,0.000000,1,0.000000,1,0.000000,1
$SNSRAWYAW,100,-2.080000,0,-1.920000,0,-1.920000,0,-1.920000,0,-1.920000,0
$SNSPULS,120,115,0,114,0,115,0,115,0
$PKTHEAD,0,6592550,113
$GNGGA,100158.000,4855.8260,N,00219.5057,E,2,20,0.59,29.0,M,47.3,M,0.0,0*5A
$GPGSA,A,3,11,05,20,30,07,09,04,16,06,,,,0.89,0.59,0.66,1*1D
$GLGSA,A,3,81,66,82,68,76,83,77,67,75,,,,0.89,0.59,0.66,2*09
$GAGSA,A,3,11,04,,,,,,,,,,,0.89,0.59,0.66,3*05
$GPGSV,3,1,12,09,61,062,38.6,11,53,275,28.4,07,53,154,29.0,06,49,211,36.8,1*64
$GPGSV,3,2,12,20,40,301,26.0,49,33,176,31.0,30,29,185,28.5,04,27,065,29.3,1*68
$GPGSV,3,3,12,16,11,051,23.3,05,07,300,27.4,29,06,336,14.5,26,05,026,,1*76
$GLGSV,3,1,10,66,57,049,33.3,67,52,298,27.4,82,45,262,26.9,76,37,097,30.2,1*79
$GLGSV,3,2,10,83,33,320,12.9,75,22,031,27.9,81,20,210,32.2,77,17,144,12.5,1*7E
$GLGSV,3,3,10,65,10,081,,68,07,273,19.2,1*69
$GAGSV,3,1,9,04,74,263,28.5,11,56,252,21.7,10,47,206,24.4,19,42,065,,7*52
$GAGSV,3,2,9,36,29,315,,12,28,184,,09,22,251,,21,17,083,,7*47
$GAGSV,3,3,9,27,11,033,,7*7F
$GNRMC,100158.000,A,4855.8260,N,00219.5057,E,42.735,296.38,311023,,,D,V*0C
$GNVTG,296.38,T,,M,42.735,N,79.188,K,D*28
$GNDTM,W84,,0.0,N,0.0,E,0.0,W84*71
$GNACCURACY,2.5,4.2,2.7,7.5*12
$GNGST,100158.000,4.3,5.3,4.1,138.9,4.8,4.7,7.5*7E
$GPEPE,06.74,07.50*40
$GPGBS,100158.000,4.85,4.69,7.50,,,,,,*4C
$PKTHEAD,1,6592645,236
$VECINFO,1,0.00,0.00,0.00,0.00
$SNSYAW,100,-2.100000,0,0.000000,1,0.000000,1,0.000000,1,0.000000,1
$SNSRAWYAW,100,-1.920000,0,-1.840000,0,-1.840000,0,-1.920000,0,-1.920000,0
$SNSPULS,80,77,0,77,0,76,0,76,0
$PKTHEAD,2,6592646,3,2.325023,48.930459,29.00,21.97,296.60,1,10,1698746518095
$PKTHEAD,1,6592746,237
$VECINFO,1,0.00,0.00,0.00,0.00
$SNSYAW,100,-2.000000,0,0.000000,1,0.000000,1,0.000000,1,0.000000,1
$SNSRAWYAW,100,-1.920000,0,-1.920000,0,-1.920000,0,-1.920000,0,-1.920000,0
$SNSPULS,120,114,0,114,0,115,0,114,0
$PKTHEAD,1,6592842,238
$VECINFO,1,0.00,0.00,0.00,0.00
$SNSYAW,100,-2.000000,0,0.000000,1,0.000000,1,0.000000,1,0.000000,1
$SNSRAWYAW,100,-1.920000,0,-1.920000,0,-1.920000,0,-1.920000,0,-1.920000,0
$SNSPULS,80,77,0,77,0,76,0,76,0
$PKTHEAD,2,6592843,3,2.324970,48.930476,29.00,21.93,297.06,1,10,1698746518292
$PKTHEAD,1,6592944,239
$VECINFO,1,0.00,0.00,0.00,0.00
$SNSYAW,100,-2.000000,0,0.000000,1,0.000000,1,0.000000,1,0.000000,1
$SNSRAWYAW,100,-1.920000,0,-1.920000,0,-1.920000,0,-1.920000,0,-1.920000,0
$SNSPULS,120,115,0,114,0,115,0,114,0
$PKTHEAD,1,6593045,240
$VECINFO,1,0.00,0.00,0.00,0.00
$SNSYAW,100,-2.000000,0,0.000000,1,0.000000,1,0.000000,1,0.000000,1
$SNSRAWYAW,100,-1.920000,0,-1.920000,0,-1.920000,0,-1.920000,0,-1.840000,0
$SNSPULS,80,76,0,76,0,76,0,76,0
$PKTHEAD,2,6593046,3,2.324917,48.930494,29.00,21.90,297.48,1,10,1698746518495
$PKTHEAD,1,6593146,241
$VECINFO,1,0.00,0.00,0.00,0.00
$SNSYAW,100,-1.800000,0,0.000000,1,0.000000,1,0.000000,1,0.000000,1
$SNSRAWYAW,100,-1.840000,0,-1.840000,0,-1.840000,0,-1.840000,0,-1.840000,0
$SNSPULS,120,115,0,114,0,114,0,114,0
$PKTHEAD,1,6593250,242
$VECINFO,1,0.00,0.00,0.00,0.00
$SNSYAW,100,-1.800000,0,0.000000,1,0.000000,1,0.000000,1,0.000000,1
$SNSRAWYAW,100,-1.840000,0,-1.840000,0,-1.680000,0,-1.680000,0,-1.680000,0
$SNSPULS,80,76,0,76,0,76,0,76,0
$PKTHEAD,2,6593251,3,2.324864,48.930512,29.00,21.86,297.84,1,10,1698746518700
$PKTHEAD,1,6593345,243
$VECINFO,1,0.00,0.00,0.00,0.00
$SNSYAW,100,-2.000000,0,0.000000,1,0.000000,1,0.000000,1,0.000000,1
$SNSRAWYAW,100,-1.680000,0,-1.840000,0,-1.840000,0,-1.840000,0,-1.840000,0
$SNSPULS,120,114,0,114,0,114,0,114,0
$PKTHEAD,1,6593447,244
$VECINFO,1,0.00,0.00,0.00,0.00
$SNSYAW,100,-1.800000,0,0.000000,1,0.000000,1,0.000000,1,0.000000,1
$SNSRAWYAW,100,-1.920000,0,-1.840000,0,-1.680000,0,-1.840000,0,-1.840000,0
$SNSPULS,80,76,0,76,0,76,0,75,0
$PKTHEAD,2,6593448,3,2.324812,48.930531,29.00,21.84,298.21,1,10,1698746518897
$PKTHEAD,1,6593544,245
$VECINFO,1,0.00,0.00,0.00,0.00
$SNSYAW,100,-2.000000,0,0.000000,1,0.000000,1,0.000000,1,0.000000,1
$SNSRAWYAW,100,-1.840000,0,-1.840000,0,-1.680000,0,-1.840000,0,-1.840000,0
$SNSPULS,120,114,0,114,0,114,0,114,0
$PKTHEAD,0,6593610,114
$GNGGA,100159.000,4855.8325,N,00219.4897,E,2,20,0.59,30.3,M,47.3,M,0.0,0*55
$GPGSA,A,3,11,05,20,30,07,09,04,16,06,,,,0.89,0.59,0.66,1*1D
$GLGSA,A,3,81,66,82,68,76,83,77,67,75,,,,0.89,0.59,0.66,2*09
$GAGSA,A,3,11,04,,,,,,,,,,,0.89,0.59,0.66,3*05
$GPGSV,3,1,12,09,61,062,37.2,11,53,275,28.3,07,53,154,31.7,06,49,211,33.6,1*6D
$GPGSV,3,2,12,20,40,301,26.0,49,33,176,31.0,30,29,185,27.8,04,27,065,26.7,1*61
$GPGSV,3,3,12,16,11,051,24.0,05,07,300,36.0,29,06,336,14.5,26,05,026,,1*76
$GLGSV,3,1,10,66,57,049,28.9,67,52,298,32.4,82,45,262,28.5,76,37,097,32.9,1*76
$GLGSV,3,2,10,83,33,320,12.9,75,22,031,27.0,81,20,210,30.9,77,17,144,13.3,1*79
$GLGSV,3,3,10,65,10,081,,68,07,273,19.9,1*62
$GAGSV,3,1,9,04,74,263,23.9,11,56,252,18.6,10,47,206,23.9,19,42,065,,7*54
$GAGSV,3,2,9,36,29,315,,12,28,184,,09,22,251,,21,17,083,,7*47
$GAGSV,3,3,9,27,11,033,,7*7F
$GNRMC,100159.000,A,4855.8325,N,00219.4897,E,42.390,298.65,311023,,,D,V*05
$GNVTG,298.65,T,,M,42.390,N,78.549,K,D*2D
$GNDTM,W84,,0.0,N,0.0,E,0.0,W84*71
$GNACCURACY,2.5,4.5,2.7,7.6*16
$GNGST,100159.000,4.3,4.8,4.1,15.0,4.8,4.2,7.6*44
$GPEPE,06.34,07.58*4C
$GPGBS,100159.000,4.79,4.15,7.58,,,,,,*4D
$PKTHEAD,1,6593644,246
$VECINFO,1,0.00,0.00,0.00,0.00
$SNSYAW,100,-1.800000,0,0.000000,1,0.000000,1,0.000000,1,0.000000,1
$SNSRAWYAW,100,-1.840000,0,-1.840000,0,-1.680000,0,-1.680000,0,-1.680000,0
$SNSPULS,80,76,0,76,0,76,0,75,0
$PKTHEAD,2,6593645,3,2.324756,48.930562,30.00,21.80,298.71,1,10,1698746519034
$PKTHEAD,1,6593747,247
$VECINFO,1,0.00,0.00,0.00,0.00
$SNSYAW,100,-2.000000,0,0.000000,1,0.000000,1,0.000000,1,0.000000,1
$SNSRAWYAW,100,-1.840000,0,-1.840000,0,-1.840000,0,-1.840000,0,-1.920000,0
$SNSPULS,120,114,0,113,0,113,0,113,0
$PKTHEAD,1,6593842,248
$VECINFO,1,0.00,0.00,0.00,0.00
$SNSYAW,100,-2.000000,0,0.000000,1,0.000000,1,0.000000,1,0.000000,1
$SNSRAWYAW,100,-1.920000,0,-2.080000,0,-2.080000,0,-1.920000,0,-1.920000,0
$SNSPULS,80,76,0,76,0,75,0,76,0
$PKTHEAD,2,6593843,3,2.324704,48.930581,30.00,21.76,299.26,1,10,1698746519232
$PKTHEAD,1,6593943,249
$VECINFO,1,0.00,0.00,0.00,0.00
$SNSYAW,100,-1.800000,0,0.000000,1,0.000000,1,0.000000,1,0.000000,1
$SNSRAWYAW,100,-1.920000,0,-1.920000,0,-1.920000,0,-1.840000,0,-1.680000,0
$SNSPULS,120,113,0,113,0,114,0,112,0
$PKTHEAD,1,6594045,250
$VECINFO,1,0.00,0.00,0.00,0.00
$SNSYAW,100,-2.000000,0,0.000000,1,0.000000,1,0.000000,1,0.000000,1
$SNSRAWYAW,100,-1.680000,0,-1.840000,0,-1.840000,0,-1.840000,0,-1.840000,0
$SNSPULS,80,75,0,75,0,75,0,75,0
$PKTHEAD,2,6594046,3,2.324653,48.930600,30.00,21.70,299.68,1,10,1698746519435
$PKTHEAD,1,6594146,251
$VECINFO,1,0.00,0.00,0.00,0.00
$SNSYAW,100,-1.800000,0,0.000000,1,0.000000,1,0.000000,1,0.000000,1
$SNSRAWYAW,100,-1.840000,0,-1.920000,0,-1.840000,0,-1.840000,0,-1.840000,0
$SNSPULS,120,113,0,112,0,113,0,113,0
$PKTHEAD,1,6594243,252
$VECINFO,1,0.00,0.00,0.00,0.00
$SNSYAW,100,-2.000000,0,0.000000,1,0.000000,1,0.000000,1,0.000000,1
$SNSRAWYAW,100,-1.840000,0,-1.840000,0,-1.840000,0,-1.840000,0,-1.840000,0
$SNSPULS,80,75,0,75,0,75,0,74,0
$PKTHEAD,2,6594244,3,2.324602,48.930619,30.00,21.64,300.07,1,10,1698746519633
$PKTHEAD,1,6594344,253
$VECINFO,1,0.00,0.00,0.00,0.00
$SNSYAW,100,-1.800000,0,0.000000,1,0.000000,1,0.000000,1,0.000000,1
$SNSRAWYAW,100,-1.920000,0,-1.920000,0,-1.920000,0,-1.840000,0,-1.680000,0
$SNSPULS,120,112,0,112,0,112,0,112,0
$PKTHEAD,1,6594445,254
$VECINFO,1,0.00,0.00,0.00,0.00
$SNSYAW,100,-1.800000,0,0.000000,1,0.000000,1,0.000000,1,0.000000,1
$SNSRAWYAW,100,-1.680000,0,-1.840000,0,-1.840000,0,-1.840000,0,-1.680000,0
$SNSPULS,80,75,0,75,0,74,0,74,0
$PKTHEAD,2,6594446,3,2.324552,48.930638,30.00,21.56,300.45,1,10,1698746519835
$PKTHEAD,1,6594542,255
$VECINFO,1,0.00,0.00,0.00,0.00
$SNSYAW,100,-2.000000,0,0.000000,1,0.000000,1,0.000000,1,0.000000,1
$SNSRAWYAW,100,-1.840000,0,-1.920000,0,-1.920000,0,-1.840000,0,-1.920000,0
$SNSPULS,120,112,0,111,0,112,0,112,0
$PKTHEAD,0,6594566,115
$GNGGA,100200.000,4855.8387,N,00219.4746,E,2,21,0.58,32.3,M,47.3,M,0.0,0*53
$GPGSA,A,3,11,05,20,30,07,09,04,16,06,,,,0.88,0.58,0.66,1*1D
$GLGSA,A,3,81,66,82,68,76,83,77,67,75,,,,0.88,0.58,0.66,2*09
$GAGSA,A,3,10,11,04,,,,,,,,,,0.88,0.58,0.66,3*04
$GPGSV,3,1,12,09,61,062,35.9,11,53,275,31.7,07,53,154,35.7,06,49,211,32.6,1*6D
$GPGSV,3,2,12,20,40,301,28.6,49,33,176,32.0,30,29,185,31.0,04,27,065,22.0,1*66
$GPGSV,3,3,12,16,11,051,20.6,05,07,300,37.0,29,06,336,14.5,26,05,026,,1*75
$GLGSV,3,1,10,66,57,049,28.8,67,52,298,31.4,82,45,262,28.9,76,37,097,32.6,1*77
$GLGSV,3,2,10,83,33,320,13.5,75,22,031,27.2,81,20,210,30.5,77,17,144,13.3,1*7A
$GLGSV,3,3,10,65,10,081,,68,07,273,23.5,1*67
$GAGSV,3,1,9,04,74,263,24.9,11,56,252,19.3,10,47,206,27.1,19,42,065,,7*5B
$GAGSV,3,2,9,36,29,315,,12,28,184,,09,22,251,,21,17,083,,7*47
$GAGSV,3,3,9,27,11,033,,7*7F
$GNRMC,100200.000,A,4855.8387,N,00219.4746,E,42.182,299.20,311023,,,D,V*00
$GNVTG,299.20,T,,M,42.182,N,78.163,K,D*20
$GNDTM,W84,,0.0,N,0.0,E,0.0,W84*71
$GNACCURACY,2.4,4.0,2.5,7.3*15
$GNGST,100200.000,4.3,5.0,3.7,36.4,4.5,4.2,7.3*4E
$GPEPE,06.17,07.33*40
$GPGBS,100200.000,4.55,4.17,7.33,,,,,,*43
$PKTHEAD,1,6594643,0
$VECINFO,1,0.00,0.00,0.00,0.00
$SNSYAW,100,-2.100000,0,0.000000,1,0.000000,1,0.000000,1,0.000000,1
$SNSRAWYAW,100,-1.920000,0,-1.920000,0,-1.920000,0,-1.920000,0,-1.920000,0
$SNSPULS,80,74,0,74,0,74,0,74,0
$PKTHEAD,2,6594644,3,2.324502,48.930659,32.00,21.48,300.70,1,10,1698746520077
$PKTHEAD,1,6594745,1
$VECINFO,1,0.00,0.00,0.00,0.00
$SNSYAW,100,-2.200000,0,0.000000,1,0.000000,1,0.000000,1,0.000000,1
$SNSRAWYAW,100,-1.920000,0,-2.080000,0,-2.080000,0,-2.080000,0,-2.080000,0
$SNSPULS,120,112,0,111,0,111,0,110,0
$PKTHEAD,1,6594841,2
$VECINFO,1,0.00,0.00,0.00,0.00
$SNSYAW,100,-2.600000,0,0.000000,1,0.000000,1,0.000000,1,0.000000,1
$SNSRAWYAW,100,-2.160000,0,-2.160000,0,-2.320000,0,-2.400000,0,-2.400000,0
$SNSPULS,80,74,0,74,0,74,0,74,0
$PKTHEAD,2,6594842,3,2.324452,48.930678,32.00,21.39,301.00,1,10,1698746520275
$PKTHEAD,1,6594943,3
$VECINFO,1,0.00,0.00,0.00,0.00
$SNSYAW,100,-2.700000,0,0.000000,1,0.000000,1,0.000000,1,0.000000,1
$SNSRAWYAW,100,-2.400000,0,-2.560000,0,-2.560000,0,-2.560000,0,-2.560000,0
$SNSPULS,120,110,0,110,0,111,0,110,0
$PKTHEAD,1,6595044,4
$VECINFO,1,0.00,0.00,0.00,0.00
$SNSYAW,100,-2.600000,0,0.000000,1,0.000000,1,0.000000,1,0.000000,1
$SNSRAWYAW,100,-2.560000,0,-2.560000,0,-2.640000,0,-2.560000,0,-2.560000,0
$SNSPULS,80,74,0,73,0,73,0,73,0
$PKTHEAD,2,6595045,3,2.324403,48.930698,32.00,21.29,301.47,1,10,1698746520478
$PKTHEAD,1,6595145,5
$VECINFO,1,0.00,0.00,0.00,0.00
$SNSYAW,100,-2.700000,0,0.000000,1,0.000000,1,0.000000,1,0.000000,1
$SNSRAWYAW,100,-2.560000,0,-2.560000,0,-2.640000,0,-2.560000,0,-2.560000,0
$SNSPULS,120,110,0,110,0,110,0,110,0
$PKTHEAD,1,6595242,6
$VECINFO,1,0.00,0.00,0.00,0.00
$SNSYAW,100,-2.700000,0,0.000000,1,0.000000,1,0.000000,1,0.000000,1
$SNSRAWYAW,100,-2.560000,0,-2.640000,0,-2.800000,0,-2.640000,0,-2.560000,0
$SNSPULS,80,74,0,73,0,73,0,73,0
$PKTHEAD,2,6595244,3,2.324354,48.930718,32.00,21.18,301.97,1,10,1698746520676
$PKTHEAD,1,6595344,7
$VECINFO,1,0.00,0.00,0.00,0.00
$SNSYAW,100,-2.700000,0,0.000000,1,0.000000,1,0.000000,1,0.000000,1
$SNSRAWYAW,100,-2.560000,0,-2.560000,0,-2.560000,0,-2.560000,0,-2.560000,0
$SNSPULS,120,110,0,110,0,110,0,109,0
$PKTHEAD,1,6595445,8
$VECINFO,1,0.00,0.00,0.00,0.00
$SNSYAW,100,-2.600000,0,0.000000,1,0.000000,1,0.000000,1,0.000000,1
$SNSRAWYAW,100,-2.560000,0,-2.560000,0,-2.560000,0,-2.640000,0,-2.560000,0
$SNSPULS,80,73,0,73,0,73,0,73,0
$PKTHEAD,2,6595447,3,2.324306,48.930738,32.00,21.10,302.48,1,10,1698746520879
$PKTHEAD,1,6595549,9
$VECINFO,1,0.00,0.00,0.00,0.00
$SNSYAW,100,-2.600000,0,0.000000,1,0.000000,1,0.000000,1,0.000000,1
$SNSRAWYAW,100,-2.560000,0,-2.400000,0,-2.560000,0,-2.560000,0,-2.560000,0
$SNSPULS,120,109,0,109,0,109,0,108,0
$PKTHEAD,0,6595568,116
$GNGGA,100201.000,4855.8443,N,00219.4600,E,2,22,0.58,32.2,M,47.3,M,0.0,0*5C
$GPGSA,A,3,29,11,05,20,30,07,09,04,16,06,,,0.86,0.58,0.64,1*1A
$GLGSA,A,3,81,66,82,68,76,83,65,67,75,,,,0.86,0.58,0.64,2*06
$GAGSA,A,3,10,11,04,,,,,,,,,,0.86,0.58,0.64,3*08
$GPGSV,3,1,12,09,61,062,34.8,11,53,275,36.5,07,53,154,36.5,06,49,211,29.6,1*63
$GPGSV,3,2,12,20,40,301,40.3,49,33,176,32.0,30,29,185,29.9,04,27,065,25.0,1*6A
$GPGSV,3,3,12,16,11,051,20.3,05,07,300,37.6,29,06,336,19.3,26,05,026,,1*7D
$GLGSV,3,1,10,66,57,049,29.3,67,52,298,43.0,82,45,262,41.6,76,37,097,30.9,1*71
$GLGSV,3,2,10,83,33,320,28.9,75,22,031,26.1,81,20,210,30.7,77,17,144,12.8,1*74
$GLGSV,3,3,10,65,10,081,12.5,68,07,273,28.8,1*79
$GAGSV,3,1,9,04,74,263,33.0,11,56,252,23.3,10,47,206,27.8,19,42,065,,7*54
$GAGSV,3,2,9,36,29,315,,12,28,184,,09,22,251,,21,17,083,,7*47
$GAGSV,3,3,9,27,11,033,,7*7F
$GNRMC,100201.000,A,4855.8443,N,00219.4600,E,40.783,301.78,311023,,,D,V*05
$GNVTG,301.78,T,,M,40.783,N,75.572,K,D*21
$GNDTM,W84,,0.0,N,0.0,E,0.0,W84*71
$GNACCURACY,2.1,3.9,2.1,6.7*1F
$GNGST,100201.000,4.3,4.0,2.5,36.2,3.6,3.1,6.7*4E
$GPEPE,04.73,06.71*47
$GPGBS,100201.000,3.56,3.12,6.71,,,,,,*43
$PKTHEAD,1,6595643,10
$VECINFO,1,0.00,0.00,0.00,0.00
$SNSYAW,100,-2.600000,0,0.000000,1,0.000000,1,0.000000,1,0.000000,1
$SNSRAWYAW,100,-2.400000,0,-2.560000,0,-2.560000,0,-2.640000,0,-2.640000,0
$SNSPULS,80,73,0,72,0,73,0,73,0
$PKTHEAD,2,6595644,3,2.324260,48.930759,32.00,21.00,302.92,1,10,1698746521075
$PKTHEAD,1,6595745,11
$VECINFO,1,0.00,0.00,0.00,0.00
$SNSYAW,100,-2.600000,0,0.000000,1,0.000000,1,0.000000,1,0.000000,1
$SNSRAWYAW,100,-2.560000,0,-2.560000,0,-2.560000,0,-2.560000,0,-2.400000,0
$SNSPULS,120,109,0,109,0,109,0,108,0
$PKTHEAD,1,6595846,12
$VECINFO,1,0.00,0.00,0.00,0.00
$SNSYAW,100,-2.400000,0,0.000000,1,0.000000,1,0.000000,1,0.000000,1
$SNSRAWYAW,100,-2.400000,0,-2.400000,0,-2.400000,0,-2.400000,0,-2.400000,0
$SNSPULS,80,73,0,72,0,72,0,72,0
$PKTHEAD,2,6595848,3,2.324212,48.930779,32.00,20.91,303.33,1,10,1698746521278
$PKTHEAD,1,6595943,13
$VECINFO,1,0.00,0.00,0.00,0.00
$SNSYAW,100,-2.600000,0,0.000000,1,0.000000,1,0.000000,1,0.000000,1
$SNSRAWYAW,100,-2.320000,0,-2.320000,0,-2.400000,0,-2.560000,0,-2.560000,0
$SNSPULS,120,109,0,109,0,109,0,108,0
$PKTHEAD,1,6596044,14
$VECINFO,1,0.00,0.00,0.00,0.00
$SNSYAW,100,-2.700000,0,0.000000,1,0.000000,1,0.000000,1,0.000000,1
$SNSRAWYAW,100,-2.400000,0,-2.560000,0,-2.560000,0,-2.800000,0,-2.640000,0
$SNSPULS,80,73,0,72,0,72,0,72,0
$PKTHEAD,2,6596045,3,2.324165,48.930799,32.00,20.84,303.81,1,10,1698746521476
$PKTHEAD,1,6596145,15
$VECINFO,1,0.00,0.00,0.00,0.00
$SNSYAW,100,-2.400000,0,0.000000,1,0.000000,1,0.000000,1,0.000000,1
$SNSRAWYAW,100,-2.560000,0,-2.560000,0,-2.400000,0,-2.400000,0,-2.400000,0
$SNSPULS,120,108,0,109,0,109,0,108,0
$PKTHEAD,1,6596241,16
$VECINFO,1,0.00,0.00,0.00,0.00
$SNSYAW,100,-2.600000,0,0.000000,1,0.000000,1,0.000000,1,0.000000,1
$SNSRAWYAW,100,-2.400000,0,-2.400000,0,-2.320000,0,-2.320000,0,-2.400000,0
$SNSPULS,80,73,0,72,0,72,0,72,0
$PKTHEAD,2,6596242,3,2.324118,48.930820,32.00,20.78,304.28,1,10,1698746521673
$PKTHEAD,1,6596345,17
$VECINFO,1,0.00,0.00,0.00,0.00
$SNSYAW,100,-2.700000,0,0.000000,1,0.000000,1,0.000000,1,0.000000,1
$SNSRAWYAW,100,-2.560000,0,-2.400000,0,-2.400000,0,-2.400000,0,-2.560000,0
$SNSPULS,120,108,0,108,0,108,0,108,0
$PKTHEAD,1,6596442,18
$VECINFO,1,0.00,0.00,0.00,0.00
$SNSYAW,100,-2.700000,0,0.000000,1,0.000000,1,0.000000,1,0.000000,1
$SNSRAWYAW,100,-2.560000,0,-2.560000,0,-2.400000,0,-2.560000,0,-2.560000,0
$SNSPULS,80,72,0,72,0,72,0,72,0
$PKTHEAD,2,6596444,3,2.324072,48.930841,32.00,20.73,304.79,1,10,1698746521874
$PKTHEAD,1,6596544,19
$VECINFO,1,0.00,0.00,0.00,0.00
$SNSYAW,100,-2.600000,0,0.000000,1,0.000000,1,0.000000,1,0.000000,1
$SNSRAWYAW,100,-2.560000,0,-2.560000,0,-2.560000,0,-2.400000,0,-2.560000,0
$SNSPULS,120,109,0,108,0,108,0,107,0
$PKTHEAD,0,6596586,117
$GNGGA,100202.000,4855.8497,N,00219.4459,E,2,21,0.61,33.9,M,47.3,M,0.0,0*5B
$GPGSA,A,3,29,11,05,20,30,07,09,04,16,06,,,1.08,0.61,0.89,1*14
$GLGSA,A,3,81,66,82,68,76,83,67,75,,,,,1.08,0.61,0.89,2*0B
$GAGSA,A,3,10,11,04,,,,,,,,,,1.08,0.61,0.89,3*06
$GPGSV,3,1,12,09,61,062,48.3,11,53,275,36.3,07,53,154,47.2,06,49,211,42.0,1*6F
$GPGSV,3,2,12,20,40,301,41.1,49,33,176,45.0,30,29,185,44.0,04,27,065,44.5,1*69
$GPGSV,3,3,12,16,11,051,26.8,05,07,300,36.4,29,06,336,18.3,26,05,026,,1*72
$GLGSV,3,1,10,66,57,049,41.4,67,52,298,43.7,82,45,262,41.3,76,37,097,44.2,1*72
$GLGSV,3,2,10,83,33,320,29.7,75,22,031,26.9,81,20,210,40.5,77,17,144,12.8,1*76
$GLGSV,3,3,10,65,10,081,,68,07,273,28.7,1*6E
$GAGSV,3,1,9,04,74,263,40.2,11,56,252,35.4,10,47,206,39.6,19,42,065,,7*53
$GAGSV,3,2,9,36,29,315,,12,28,184,,09,22,251,,21,17,083,,7*47
$GAGSV,3,3,9,27,11,033,,7*7F
$GNRMC,100202.000,A,4855.8497,N,00219.4459,E,39.866,305.67,311023,,,D,V*01
$GNVTG,305.67,T,,M,39.866,N,73.873,K,D*2B
$GNDTM,W84,,0.0,N,0.0,E,0.0,W84*71
$GNACCURACY,1.8,2.1,1.6,6.3*1C
$GNGST,100202.000,4.3,2.9,2.4,33.3,2.8,2.6,6.3*4A
$GPEPE,03.82,06.35*4E
$GPGBS,100202.000,2.80,2.60,6.35,,,,,,*4E
$PKTHEAD,1,6596645,20
$VECINFO,1,0.00,0.00,0.00,0.00
$SNSYAW,100,-2.600000,0,0.000000,1,0.000000,1,0.000000,1,0.000000,1
$SNSRAWYAW,100,-2.560000,0,-2.560000,0,-2.560000,0,-2.560000,0,-2.560000,0
$SNSPULS,80,72,0,72,0,72,0,72,0
$PKTHEAD,2,6596646,3,2.324028,48.930862,33.00,20.68,305.36,1,10,1698746522059
$PKTHEAD,1,6596742,21
$VECINFO,1,0.00,0.00,0.00,0.00
$SNSYAW,100,-2.600000,0,0.000000,1,0.000000,1,0.000000,1,0.000000,1
$SNSRAWYAW,100,-2.400000,0,-2.400000,0,-2.400000,0,-2.560000,0,-2.400000,0
$SNSPULS,120,108,0,107,0,108,0,107,0
$PKTHEAD,1,6596844,22
$VECINFO,1,0.00,0.00,0.00,0.00
$SNSYAW,100,-2.600000,0,0.000000,1,0.000000,1,0.000000,1,0.000000,1
$SNSRAWYAW,100,-2.400000,0,-2.400000,0,-2.400000,0,-2.400000,0,-2.400000,0
$SNSPULS,80,72,0,72,0,72,0,72,0
$PKTHEAD,2,6596845,3,2.323982,48.930883,33.00,20.66,305.91,1,10,1698746522258
$PKTHEAD,1,6596945,23
$VECINFO,1,0.00,0.00,0.00,0.00
$SNSYAW,100,-2.300000,0,0.000000,1,0.000000,1,0.000000,1,0.000000,1
$SNSRAWYAW,100,-2.400000,0,-2.400000,0,-2.400000,0,-2.320000,0,-2.160000,0
$SNSPULS,120,108,0,108,0,107,0,107,0
$PKTHEAD,1,6597041,24
$VECINFO,1,0.00,0.00,0.00,0.00
$SNSYAW,100,-2.300000,0,0.000000,1,0.000000,1,0.000000,1,0.000000,1
$SNSRAWYAW,100,-2.160000,0,-2.160000,0,-2.320000,0,-2.320000,0,-2.320000,0
$SNSPULS,80,72,0,72,0,72,0,71,0
$PKTHEAD,2,6597043,3,2.323937,48.930905,33.00,20.61,306.40,1,10,1698746522455
$PKTHEAD,1,6597143,25
$VECINFO,1,0.00,0.00,0.00,0.00
$SNSYAW,100,-2.300000,0,0.000000,1,0.000000,1,0.000000,1,0.000000,1
$SNSRAWYAW,100,-2.160000,0,-2.160000,0,-2.320000,0,-2.320000,0,-2.320000,0
$SNSPULS,120,108,0,107,0,108,0,108,0
$PKTHEAD,1,6597245,26
$VECINFO,1,0.00,0.00,0.00,0.00
$SNSYAW,100,-2.300000,0,0.000000,1,0.000000,1,0.000000,1,0.000000,1
$SNSRAWYAW,100,-2.160000,0,-2.160000,0,-2.160000,0,-2.160000,0,-2.160000,0
$SNSPULS,80,72,0,72,0,71,0,71,0
$PKTHEAD,2,6597246,3,2.323892,48.930927,33.00,20.58,306.85,1,10,1698746522659
$PKTHEAD,1,6597346,27
$VECINFO,1,0.00,0.00,0.00,0.00
$SNSYAW,100,-2.300000,0,0.000000,1,0.000000,1,0.000000,1,0.000000,1
$SNSRAWYAW,100,-2.160000,0,-2.160000,0,-2.160000,0,-2.160000,0,-2.320000,0
$SNSPULS,120,107,0,107,0,108,0,107,0
$PKTHEAD,1,6597443,28
$VECINFO,1,0.00,0.00,0.00,0.00
$SNSYAW,100,-2.400000,0,0.000000,1,0.000000,1,0.000000,1,0.000000,1
$SNSRAWYAW,100,-2.320000,0,-2.160000,0,-2.320000,0,-2.320000,0,-2.400000,0
$SNSPULS,80,72,0,72,0,71,0,71,0
$PKTHEAD,2,6597444,3,2.323847,48.930949,33.00,20.54,307.31,1,10,1698746522857
$PKTHEAD,1,6597544,29
$VECINFO,1,0.00,0.00,0.00,0.00
$SNSYAW,100,-2.400000,0,0.000000,1,0.000000,1,0.000000,1,0.000000,1
$SNSRAWYAW,100,-2.320000,0,-2.320000,0,-2.320000,0,-2.400000,0,-2.400000,0
$SNSPULS,120,107,0,107,0,107,0,107,0
$PKTHEAD,0,6597582,118
$GNGGA,100203.000,4855.8555,N,00219.4315,E,2,22,0.56,38.2,M,47.3,M,0.0,0*5D
$GPGSA,A,3,29,11,05,20,30,07,09,04,16,06,,,1.00,0.56,0.83,1*12
$GLGSA,A,3,81,66,82,68,76,83,77,67,75,,,,1.00,0.56,0.83,2*0D
$GAGSA,A,3,10,11,04,,,,,,,,,,1.00,0.56,0.83,3*00
$GPGSV,3,1,12,09,61,062,47.8,11,53,275,37.0,07,53,154,46.5,06,49,211,43.0,1*6E
$GPGSV,3,2,12,20,40,301,42.3,49,33,176,45.0,30,29,185,44.9,04,27,065,35.4,1*66
$GPGSV,3,3,12,16,11,051,32.5,05,07,300,29.4,29,06,336,19.5,26,05,026,,1*73
$GLGSV,3,1,10,66,57,049,41.7,67,52,298,43.8,82,45,262,41.1,76,37,097,44.3,1*7D
$GLGSV,3,2,10,83,33,320,25.9,75,22,031,36.1,81,20,210,46.0,77,17,144,28.1,1*7E
$GLGSV,3,3,10,65,10,081,,68,07,273,33.9,1*6A
$GAGSV,3,1,9,04,74,263,40.7,11,56,252,34.1,10,47,206,40.1,19,42,065,,7*5B
$GAGSV,3,2,9,36,29,315,,12,28,184,,09,22,251,,21,17,083,,7*47
$GAGSV,3,3,9,27,11,033,,7*7F
$GNRMC,100203.000,A,4855.8555,N,00219.4315,E,39.793,308.05,311023,,,D,V*0C
$GNVTG,308.05,T,,M,39.793,N,73.737,K,D*28
$GNDTM,W84,,0.0,N,0.0,E,0.0,W84*71
$GNACCURACY,2.5,3.6,2.1,6.8*1B
$GNGST,100203.000,4.3,5.8,3.3,9.1,5.7,3.4,6.8*70
$GPEPE,06.64,06.78*4A
$GPGBS,100203.000,5.71,3.38,6.78,,,,,,*43
$PKTHEAD,1,6597645,30
$VECINFO,1,0.00,0.00,0.00,0.00
$SNSYAW,100,-2.300000,0,0.000000,1,0.000000,1,0.000000,1,0.000000,1
$SNSRAWYAW,100,-2.320000,0,-2.320000,0,-2.320000,0,-2.160000,0,-2.160000,0
$SNSPULS,80,72,0,71,0,72,0,71,0
$PKTHEAD,2,6597647,3,2.323801,48.930969,38.00,20.52,307.95,1,10,1698746523063
$PKTHEAD,1,6597742,31
$VECINFO,1,0.00,0.00,0.00,0.00
$SNSYAW,100,-2.200000,0,0.000000,1,0.000000,1,0.000000,1,0.000000,1
$SNSRAWYAW,100,-2.160000,0,-2.160000,0,-2.080000,0,-2.160000,0,-2.160000,0
$SNSPULS,120,107,0,107,0,107,0,106,0
$PKTHEAD,1,6597843,32
$VECINFO,1,0.00,0.00,0.00,0.00
$SNSYAW,100,-2.100000,0,0.000000,1,0.000000,1,0.000000,1,0.000000,1
$SNSRAWYAW,100,-2.080000,0,-2.080000,0,-2.080000,0,-2.080000,0,-1.920000,0
$SNSPULS,80,72,0,71,0,71,0,71,0
$PKTHEAD,2,6597844,3,2.323757,48.930992,38.00,20.47,308.57,1,10,1698746523261
$PKTHEAD,1,6597945,33
$VECINFO,1,0.00,0.00,0.00,0.00
$SNSYAW,100,-2.000000,0,0.000000,1,0.000000,1,0.000000,1,0.000000,1
$SNSRAWYAW,100,-1.920000,0,-1.920000,0,-1.920000,0,-1.920000,0,-1.920000,0
$SNSPULS,120,107,0,107,0,107,0,107,0
$PKTHEAD,1,6598046,34
$VECINFO,1,0.00,0.00,0.00,0.00
$SNSYAW,100,-2.000000,0,0.000000,1,0.000000,1,0.000000,1,0.000000,1
$SNSRAWYAW,100,-1.920000,0,-1.920000,0,-1.920000,0,-1.920000,0,-1.920000,0
$SNSPULS,80,71,0,71,0,71,0,71,0
$PKTHEAD,2,6598047,3,2.323714,48.931015,38.00,20.46,309.05,1,10,1698746523464
$PKTHEAD,1,6598143,35
$VECINFO,1,0.00,0.00,0.00,0.00
$SNSYAW,100,-2.000000,0,0.000000,1,0.000000,1,0.000000,1,0.000000,1
$SNSRAWYAW,100,-1.920000,0,-1.920000,0,-1.920000,0,-1.920000,0,-1.920000,0
$SNSPULS,120,107,0,107,0,106,0,106,0
$PKTHEAD,1,6598244,36
$VECINFO,1,0.00,0.00,0.00,0.00
$SNSYAW,100,-2.100000,0,0.000000,1,0.000000,1,0.000000,1,0.000000,1
$SNSRAWYAW,100,-1.920000,0,-1.920000,0,-2.080000,0,-2.080000,0,-2.080000,0
$SNSPULS,80,71,0,71,0,71,0,71,0
$PKTHEAD,2,6598246,3,2.323671,48.931038,38.00,20.42,309.49,1,10,1698746523662
$PKTHEAD,1,6598345,37
$VECINFO,1,0.00,0.00,0.00,0.00
$SNSYAW,100,-2.100000,0,0.000000,1,0.000000,1,0.000000,1,0.000000,1
$SNSRAWYAW,100,-2.080000,0,-2.160000,0,-2.160000,0,-2.080000,0,-2.080000,0
$SNSPULS,120,107,0,106,0,107,0,106,0
$PKTHEAD,1,6598442,38
$VECINFO,1,0.00,0.00,0.00,0.00
$SNSYAW,100,-2.100000,0,0.000000,1,0.000000,1,0.000000,1,0.000000,1
$SNSRAWYAW,100,-2.080000,0,-2.160000,0,-2.160000,0,-2.080000,0,-1.920000,0
$SNSPULS,80,71,0,71,0,71,0,70,0
$PKTHEAD,2,6598443,3,2.323628,48.931061,38.00,20.38,309.92,1,10,1698746523860
$PKTHEAD,1,6598543,39
$VECINFO,1,0.00,0.00,0.00,0.00
$SNSYAW,100,-2.200000,0,0.000000,1,0.000000,1,0.000000,1,0.000000,1
$SNSRAWYAW,100,-2.080000,0,-2.160000,0,-2.160000,0,-2.160000,0,-2.080000,0
$SNSPULS,120,107,0,107,0,106,0,106,0
$PKTHEAD,0,6598559,119
$GNGGA,100204.000,4855.8632,N,00219.4202,E,2,23,0.55,37.3,M,47.3,M,0.0,0*53
$GPGSA,A,3,29,11,05,26,20,30,07,09,04,16,06,,0.97,0.55,0.80,1*19
$GLGSA,A,3,81,66,82,68,76,83,77,67,75,,,,0.97,0.55,0.80,2*02
$GAGSA,A,3,10,11,04,,,,,,,,,,0.97,0.55,0.80,3*0F
$GPGSV,3,1,12,09,61,062,47.5,11,53,275,37.6,07,53,154,46.4,06,49,211,43.3,1*67
$GPGSV,3,2,12,20,40,301,42.5,49,33,176,45.0,30,29,185,45.2,04,27,065,43.6,1*69
$GPGSV,3,3,12,16,11,051,33.4,05,07,300,36.7,29,06,336,22.6,26,05,026,26.3,1*6C
$GLGSV,3,1,10,66,57,049,41.6,67,52,298,44.4,82,45,262,41.9,76,37,097,43.3,1*78
$GLGSV,3,2,10,83,33,320,25.1,75,22,031,32.3,81,20,210,44.7,77,17,144,27.0,1*7B
$GLGSV,3,3,10,65,10,081,,68,07,273,32.4,1*66
$GAGSV,3,1,9,04,74,263,40.6,11,56,252,33.6,10,47,206,40.9,19,42,065,,7*52
$GAGSV,3,2,9,36,29,315,,12,28,184,,09,22,251,,21,17,083,,7*47
$GAGSV,3,3,9,27,11,033,,7*7F
$GNRMC,100204.000,A,4855.8632,N,00219.4202,E,39.408,310.39,311023,,,D,V*09
$GNVTG,310.39,T,,M,39.408,N,73.024,K,D*2A
$GNDTM,W84,,0.0,N,0.0,E,0.0,W84*71
$GNACCURACY,1.8,0.9,0.8,5.7*1E
$GNGST,100204.000,4.3,2.6,2.3,2.9,2.6,2.3,5.7*70
$GPEPE,03.49,05.72*49
$GPGBS,100204.000,2.60,2.33,5.72,,,,,,*40
$PKTHEAD,1,6598645,40
$VECINFO,1,0.00,0.00,0.00,0.00
$SNSYAW,100,-2.100000,0,0.000000,1,0.000000,1,0.000000,1,0.000000,1
$SNSRAWYAW,100,-2.160000,0,-2.160000,0,-2.160000,0,-2.160000,0,-2.080000,0
$SNSPULS,80,71,0,71,0,71,0,71,0
$PKTHEAD,2,6598646,3,2.323593,48.931085,37.00,20.35,310.55,1,10,1698746524086
$PKTHEAD,1,6598746,41
$VECINFO,1,0.00,0.00,0.00,0.00
$SNSYAW,100,-2.200000,0,0.000000,1,0.000000,1,0.000000,1,0.000000,1
$SNSRAWYAW,100,-2.080000,0,-2.080000,0,-2.080000,0,-2.080000,0,-2.160000,0
$SNSPULS,120,107,0,106,0,106,0,106,0
$PKTHEAD,1,6598842,42
$VECINFO,1,0.00,0.00,0.00,0.00
$SNSYAW,100,-2.400000,0,0.000000,1,0.000000,1,0.000000,1,0.000000,1
$SNSRAWYAW,100,-2.160000,0,-2.080000,0,-2.080000,0,-2.160000,0,-2.320000,0
$SNSPULS,80,71,0,71,0,71,0,71,0
$PKTHEAD,2,6598843,3,2.323551,48.931109,37.00,20.33,311.17,1,10,1698746524283
$PKTHEAD,1,6598943,43
$VECINFO,1,0.00,0.00,0.00,0.00
$SNSYAW,100,-2.300000,0,0.000000,1,0.000000,1,0.000000,1,0.000000,1
$SNSRAWYAW,100,-2.400000,0,-2.320000,0,-2.160000,0,-2.160000,0,-2.320000,0
$SNSPULS,120,106,0,106,0,106,0,105,0
$PKTHEAD,1,6599045,44
$VECINFO,1,0.00,0.00,0.00,0.00
$SNSYAW,100,-2.300000,0,0.000000,1,0.000000,1,0.000000,1,0.000000,1
$SNSRAWYAW,100,-2.320000,0,-2.160000,0,-2.160000,0,-2.160000,0,-2.320000,0
$SNSPULS,80,71,0,71,0,71,0,71,0
$PKTHEAD,2,6599046,3,2.323509,48.931133,37.00,20.30,311.71,1,10,1698746524486
$PKTHEAD,1,6599146,45
$VECINFO,1,0.00,0.00,0.00,0.00
$SNSYAW,100,-2.300000,0,0.000000,1,0.000000,1,0.000000,1,0.000000,1
$SNSRAWYAW,100,-2.320000,0,-2.160000,0,-2.160000,0,-2.160000,0,-2.320000,0
$SNSPULS,120,107,0,106,0,107,0,106,0
$PKTHEAD,1,6599242,46
$VECINFO,1,0.00,0.00,0.00,0.00
$SNSYAW,100,-2.300000,0,0.000000,1,0.000000,1,0.000000,1,0.000000,1
$SNSRAWYAW,100,-2.320000,0,-2.160000,0,-2.160000,0,-2.160000,0,-2.320000,0
$SNSPULS,80,71,0,71,0,70,0,70,0
$PKTHEAD,2,6599246,3,2.323468,48.931157,37.00,20.29,312.20,1,10,1698746524683
$PKTHEAD,1,6599344,47
$VECINFO,1,0.00,0.00,0.00,0.00
$SNSYAW,100,-2.600000,0,0.000000,1,0.000000,1,0.000000,1,0.000000,1
$SNSRAWYAW,100,-2.320000,0,-2.160000,0,-2.160000,0,-2.320000,0,-2.400000,0
$SNSPULS,120,107,0,106,0,107,0,106,0
$PKTHEAD,1,6599445,48
$VECINFO,1,0.00,0.00,0.00,0.00
$SNSYAW,100,-2.600000,0,0.000000,1,0.000000,1,0.000000,1,0.000000,1
$SNSRAWYAW,100,-2.560000,0,-2.560000,0,-2.560000,0,-2.560000,0,-2.560000,0
$SNSPULS,80,71,0,71,0,70,0,71,0
$PKTHEAD,2,6599447,3,2.323427,48.931182,37.00,20.29,312.72,1,10,1698746524886
$PKTHEAD,1,6599544,49
$VECINFO,1,0.00,0.00,0.00,0.00
$SNSYAW,100,-2.600000,0,0.000000,1,0.000000,1,0.000000,1,0.000000,1
$SNSRAWYAW,100,-2.560000,0,-2.640000,0,-2.640000,0,-2.560000,0,-2.560000,0
$SNSPULS,120,106,0,106,0,107,0,106,0
$PKTHEAD,0,6599558,120
$GNGGA,100205.000,4855.8701,N,00219.4072,E,2,24,0.54,38.3,M,47.3,M,0.0,0*5F
$GPGSA,A,3,29,11,05,26,20,30,07,09,04,16,06,,0.94,0.54,0.77,1*13
$GLGSA,A,3,81,66,82,65,68,76,83,77,67,75,,,0.94,0.54,0.77,2*0B
$GAGSA,A,3,10,11,04,,,,,,,,,,0.94,0.54,0.77,3*05
$GPGSV,3,1,12,09,61,062,46.6,11,53,275,40.2,07,53,154,46.1,06,49,211,43.3,1*64
$GPGSV,3,2,12,20,40,301,41.6,49,33,176,44.0,30,29,185,44.5,04,27,065,44.1,1*6E
$GPGSV,3,3,12,16,11,051,33.6,05,07,300,37.9,29,06,336,25.5,26,05,026,20.8,1*68
$GLGSV,3,1,10,66,57,049,40.9,67,52,298,43.8,82,45,262,41.4,76,37,097,42.7,1*75
$GLGSV,3,2,10,83,33,320,25.8,75,22,031,37.8,81,20,210,40.0,77,17,144,28.5,1*75
$GLGSV,3,3,10,65,10,081,21.6,68,07,273,38.5,1*76
$GAGSV,3,1,9,04,74,263,40.5,11,56,252,34.7,10,47,206,41.1,19,42,065,,7*5E
$GAGSV,3,2,9,36,29,315,,12,28,184,,09,22,251,,21,17,083,,7*47
$GAGSV,3,3,9,27,11,033,,7*7F
$GNRMC,100205.000,A,4855.8701,N,00219.4072,E,39.409,312.51,311023,,,D,V*01
$GNVTG,312.51,T,,M,39.409,N,73.025,K,D*26
$GNDTM,W84,,0.0,N,0.0,E,0.0,W84*71
$GNACCURACY,1.7,0.6,0.6,5.6*11
$GNGST,100205.000,4.3,2.6,2.3,1.9,2.6,2.3,5.6*73
$GPEPE,03.46,05.58*4E
$GPGBS,100205.000,2.60,2.28,5.58,,,,,,*43
$PKTHEAD,1,6599643,50
$VECINFO,1,0.00,0.00,0.00,0.00
$SNSYAW,100,-2.800000,0,0.000000,1,0.000000,1,0.000000,1,0.000000,1
$SNSRAWYAW,100,-2.560000,0,-2.560000,0,-2.560000,0,-2.640000,0,-2.640000,0
$SNSPULS,80,71,0,71,0,70,0,70,0
$PKTHEAD,2,6599647,3,2.323391,48.931205,38.00,20.28,313.27,1,10,1698746525085
$PKTHEAD,1,6599745,51
$VECINFO,1,0.00,0.00,0.00,0.00
$SNSYAW,100,-3.200000,0,0.000000,1,0.000000,1,0.000000,1,0.000000,1
$SNSRAWYAW,100,-2.800000,0,-2.960000,0,-2.960000,0,-2.960000,0,-2.960000,0
$SNSPULS,120,107,0,106,0,107,0,106,0
$PKTHEAD,1,6599845,52
$VECINFO,1,0.00,0.00,0.00,0.00
$SNSYAW,100,-3.300000,0,0.000000,1,0.000000,1,0.000000,1,0.000000,1
$SNSRAWYAW,100,-3.200000,0,-3.280000,0,-3.280000,0,-3.280000,0,-3.200000,0
$SNSPULS,80,71,0,70,0,70,0,70,0
$PKTHEAD,2,6599846,3,2.323351,48.931230,38.00,20.27,313.91,1,10,1698746525287
$PKTHEAD,1,6599943,53
$VECINFO,1,0.00,0.00,0.00,0.00
$SNSYAW,100,-3.300000,0,0.000000,1,0.000000,1,0.000000,1,0.000000,1
$SNSRAWYAW,100,-3.280000,0,-3.280000,0,-3.280000,0,-3.280000,0,-3.280000,0
$SNSPULS,120,106,0,106,0,107,0,106,0
$PKTHEAD,1,6600044,54
$VECINFO,1,0.00,0.00,0.00,0.00
$SNSYAW,100,-3.200000,0,0.000000,1,0.000000,1,0.000000,1,0.000000,1
$SNSRAWYAW,100,-3.280000,0,-3.280000,0,-3.280000,0,-3.280000,0,-3.280000,0
$SNSPULS,80,71,0,71,0,70,0,70,0
$PKTHEAD,2,6600045,3,2.323311,48.931256,38.00,20.27,314.56,1,10,1698746525486
$PKTHEAD,1,6600145,55
$VECINFO,1,0.00,0.00,0.00,0.00
$SNSYAW,100,-3.200000,0,0.000000,1,0.000000,1,0.000000,1,0.000000,1
$SNSRAWYAW,100,-3.200000,0,-3.200000,0,-3.200000,0,-3.200000,0,-3.280000,0
$SNSPULS,120,106,0,106,0,106,0,106,0
$PKTHEAD,1,6600242,56
$VECINFO,1,0.00,0.00,0.00,0.00
$SNSYAW,100,-2.900000,0,0.000000,1,0.000000,1,0.000000,1,0.000000,1
$SNSRAWYAW,100,-3.200000,0,-3.200000,0,-3.040000,0,-3.040000,0,-3.040000,0
$SNSPULS,80,71,0,70,0,71,0,70,0
$PKTHEAD,2,6600244,3,2.323272,48.931281,38.00,20.27,315.19,1,10,1698746525684
$PKTHEAD,1,6600344,57
$VECINFO,1,0.00,0.00,0.00,0.00
$SNSYAW,100,-2.800000,0,0.000000,1,0.000000,1,0.000000,1,0.000000,1
$SNSRAWYAW,100,-2.960000,0,-2.960000,0,-2.960000,0,-2.800000,0,-2.800000,0
$SNSPULS,120,106,0,106,0,106,0,105,0
$PKTHEAD,1,6600445,58
$VECINFO,1,0.00,0.00,0.00,0.00
$SNSYAW,100,-2.600000,0,0.000000,1,0.000000,1,0.000000,1,0.000000,1
$SNSRAWYAW,100,-2.800000,0,-2.640000,0,-2.560000,0,-2.560000,0,-2.560000,0
$SNSPULS,80,71,0,70,0,71,0,70,0
$PKTHEAD,2,6600446,3,2.323233,48.931307,38.00,20.24,315.75,1,10,1698746525887
$PKTHEAD,0,6600537,121
$GNGGA,100206.000,4855.8780,N,00219.3955,E,2,24,0.54,39.2,M,47.3,M,0.0,0*5E
$GPGSA,A,3,29,11,05,26,20,30,07,09,04,16,06,,0.94,0.54,0.77,1*13
$GLGSA,A,3,81,66,82,65,68,76,83,77,67,75,,,0.94,0.54,0.77,2*0B
$GAGSA,A,3,10,11,04,,,,,,,,,,0.94,0.54,0.77,3*05
$GPGSV,3,1,12,09,61,062,47.3,11,53,275,37.6,07,53,154,46.4,06,49,211,43.0,1*62
$GPGSV,3,2,12,20,40,301,40.5,49,33,176,44.0,30,29,185,45.0,04,27,065,45.3,1*6B
$GPGSV,3,3,12,16,11,051,23.8,05,07,300,38.0,29,06,336,24.3,26,05,026,21.2,1*6D
$GLGSV,3,1,10,66,57,049,41.4,67,52,298,44.3,82,45,262,41.4,76,37,097,43.2,1*71
$GLGSV,3,2,10,83,33,320,28.4,75,22,031,33.1,81,20,210,41.0,77,17,144,29.4,1*78
$GLGSV,3,3,10,65,10,081,24.9,68,07,273,38.8,1*71
$GAGSV,3,1,9,04,74,263,40.4,11,56,252,34.6,10,47,206,40.7,19,42,065,,7*59
$GAGSV,3,2,9,36,29,315,,12,28,184,,09,22,251,,21,17,083,,7*47
$GAGSV,3,3,9,27,11,033,,7*7F
$GNRMC,100206.000,A,4855.8780,N,00219.3955,E,39.338,314.49,311023,,,D,V*0A
$GNVTG,314.49,T,,M,39.338,N,72.894,K,D*2F
$GNDTM,W84,,0.0,N,0.0,E,0.0,W84*71
$GNACCURACY,1.7,0.3,0.2,5.0*16
$GNGST,100206.000,4.2,2.5,2.1,159.2,2.5,2.2,5.0*73
$GPEPE,03.32,05.00*40
$GPGBS,100206.000,2.50,2.18,5.00,,,,,,*4D
$PKTHEAD,1,6600553,59
$VECINFO,1,0.00,0.00,0.00,0.00
$SNSYAW,100,-2.400000,0,0.000000,1,0.000000,1,0.000000,1,0.000000,1
$SNSRAWYAW,100,-2.560000,0,-2.400000,0,-2.400000,0,-2.400000,0,-2.400000,0
$SNSPULS,120,106,0,106,0,105,0,106,0
$PKTHEAD,1,6600642,60
$VECINFO,1,0.00,0.00,0.00,0.00
$SNSYAW,100,-2.300000,0,0.000000,1,0.000000,1,0.000000,1,0.000000,1
$SNSRAWYAW,100,-2.400000,0,-2.320000,0,-2.320000,0,-2.320000,0,-2.320000,0
$SNSPULS,80,71,0,70,0,71,0,70,0
$PKTHEAD,2,6600644,3,2.323187,48.931341,39.00,20.23,316.09,1,10,1698746526105
$PKTHEAD,1,6600744,61
$VECINFO,1,0.00,0.00,0.00,0.00
$SNSYAW,100,-2.200000,0,0.000000,1,0.000000,1,0.000000,1,0.000000,1
$SNSRAWYAW,100,-2.320000,0,-2.320000,0,-2.160000,0,-2.160000,0,-2.160000,0
$SNSPULS,120,105,0,106,0,105,0,105,0
$PKTHEAD,1,6600845,62
$VECINFO,1,0.00,0.00,0.00,0.00
$SNSYAW,100,-2.200000,0,0.000000,1,0.000000,1,0.000000,1,0.000000,1
$SNSRAWYAW,100,-2.160000,0,-2.160000,0,-2.160000,0,-2.160000,0,-2.160000,0
$SNSPULS,80,71,0,70,0,70,0,70,0
$PKTHEAD,2,6600846,3,2.323149,48.931367,39.00,20.20,316.46,1,10,1698746526308
$PKTHEAD,1,6600946,63
$VECINFO,1,0.00,0.00,0.00,0.00
$SNSYAW,100,-2.300000,0,0.000000,1,0.000000,1,0.000000,1,0.000000,1
$SNSRAWYAW,100,-2.160000,0,-2.160000,0,-2.320000,0,-2.320000,0,-2.320000,0
$SNSPULS,120,105,0,105,0,105,0,104,0
$PKTHEAD,1,6601042,64
$VECINFO,1,0.00,0.00,0.00,0.00
$SNSYAW,100,-2.400000,0,0.000000,1,0.000000,1,0.000000,1,0.000000,1
$SNSRAWYAW,100,-2.320000,0,-2.400000,0,-2.400000,0,-2.400000,0,-2.400000,0
$SNSPULS,80,70,0,70,0,70,0,70,0
$PKTHEAD,2,6601044,3,2.323111,48.931394,39.00,20.15,316.90,1,10,1698746526505
$PKTHEAD,1,6601144,65
$VECINFO,1,0.00,0.00,0.00,0.00
$SNSYAW,100,-2.300000,0,0.000000,1,0.000000,1,0.000000,1,0.000000,1
$SNSRAWYAW,100,-2.400000,0,-2.320000,0,-2.320000,0,-2.320000,0,-2.320000,0
$SNSPULS,120,105,0,104,0,105,0,105,0
$PKTHEAD,1,6601245,66
$VECINFO,1,0.00,0.00,0.00,0.00
$SNSYAW,100,-2.600000,0,0.000000,1,0.000000,1,0.000000,1,0.000000,1
$SNSRAWYAW,100,-2.320000,0,-2.400000,0,-2.400000,0,-2.560000,0,-2.560000,0
$SNSPULS,80,70,0,70,0,70,0,69,0
$PKTHEAD,2,6601246,3,2.323074,48.931420,39.00,20.11,317.38,1,10,1698746526708
$PKTHEAD,1,6601342,67
$VECINFO,1,0.00,0.00,0.00,0.00
$SNSYAW,100,-2.700000,0,0.000000,1,0.000000,1,0.000000,1,0.000000,1
$SNSRAWYAW,100,-2.560000,0,-2.560000,0,-2.560000,0,-2.640000,0,-2.640000,0
$SNSPULS,120,105,0,105,0,105,0,105,0
$PKTHEAD,1,6601443,68
$VECINFO,1,0.00,0.00,0.00,0.00
$SNSYAW,100,-2.600000,0,0.000000,1,0.000000,1,0.000000,1,0.000000,1
$SNSRAWYAW,100,-2.640000,0,-2.640000,0,-2.560000,0,-2.640000,0,-2.640000,0
$SNSPULS,80,71,0,70,0,70,0,69,0
$PKTHEAD,2,6601444,3,2.323037,48.931446,39.00,20.07,317.92,1,10,1698746526906
$PKTHEAD,1,6601551,69
$VECINFO,1,0.00,0.00,0.00,0.00
$SNSYAW,100,-2.600000,0,0.000000,1,0.000000,1,0.000000,1,0.000000,1
$SNSRAWYAW,100,-2.560000,0,-2.560000,0,-2.560000,0,-2.400000,0,-2.400000,0
$SNSPULS,120,105,0,105,0,104,0,104,0
$PKTHEAD,0,6601570,122
$GNGGA,100207.000,4855.8862,N,00219.3845,E,2,24,0.54,39.5,M,47.3,M,0.0,0*5B
$GPGSA,A,3,29,11,05,26,20,30,07,09,04,16,06,,0.94,0.54,0.78,1*1C
$GLGSA,A,3,81,66,82,65,68,76,83,77,67,75,,,0.94,0.54,0.78,2*04
$GAGSA,A,3,10,11,04,,,,,,,,,,0.94,0.54,0.78,3*0A
$GPGSV,3,1,12,09,61,062,47.0,11,53,275,37.7,07,53,154,46.4,06,49,211,43.6,1*66
$GPGSV,3,2,12,20,40,301,41.5,49,33,176,44.0,30,29,185,45.4,04,27,065,34.7,1*6C
$GPGSV,3,3,12,16,11,051,25.0,05,07,300,37.9,29,06,336,30.1,26,05,026,21.2,1*62
$GLGSV,3,1,10,66,57,049,41.3,67,52,298,44.3,82,45,262,41.4,76,37,097,42.7,1*72
$GLGSV,3,2,10,83,33,320,29.1,75,22,031,26.2,81,20,210,42.6,77,17,144,28.5,1*7E
$GLGSV,3,3,10,65,10,081,25.6,68,07,273,31.5,1*7B
$GAGSV,3,1,9,04,74,263,40.1,11,56,252,34.7,10,47,206,40.8,19,42,065,,7*52
$GAGSV,3,2,9,36,29,315,,12,28,184,,09,22,251,,21,17,083,,7*47
$GAGSV,3,3,9,27,11,033,,7*7F
$GNRMC,100207.000,A,4855.8862,N,00219.3845,E,38.943,317.23,311023,,,D,V*00
$GNVTG,317.23,T,,M,38.943,N,72.161,K,D*24
$GNDTM,W84,,0.0,N,0.0,E,0.0,W84*71
$GNACCURACY,1.8,0.3,0.2,5.0*19
$GNGST,100207.000,4.2,2.6,2.4,166.9,2.6,2.4,5.0*76
$GPEPE,03.56,05.03*41
$GPGBS,100207.000,2.62,2.41,5.03,,,,,,*42
$PKTHEAD,1,6601648,70
$VECINFO,1,0.00,0.00,0.00,0.00
$SNSYAW,100,-2.300000,0,0.000000,1,0.000000,1,0.000000,1,0.000000,1
$SNSRAWYAW,100,-2.560000,0,-2.400000,0,-2.320000,0,-2.320000,0,-2.320000,0
$SNSPULS,80,70,0,69,0,70,0,70,0
$PKTHEAD,2,6601651,3,2.323017,48.931474,39.00,20.03,318.32,1,10,1698746527078
$PKTHEAD,1,6601743,71
$VECINFO,1,0.00,0.00,0.00,0.00
$SNSYAW,100,-2.300000,0,0.000000,1,0.000000,1,0.000000,1,0.000000,1
$SNSRAWYAW,100,-2.320000,0,-2.400000,0,-2.320000,0,-2.160000,0,-2.160000,0
$SNSPULS,120,105,0,105,0,105,0,105,0
$PKTHEAD,1,6601844,72
$VECINFO,1,0.00,0.00,0.00,0.00
$SNSYAW,100,-2.200000,0,0.000000,1,0.000000,1,0.000000,1,0.000000,1
$SNSRAWYAW,100,-2.320000,0,-2.320000,0,-2.320000,0,-2.160000,0,-2.160000,0
$SNSPULS,80,70,0,70,0,70,0,69,0
$PKTHEAD,2,6601845,3,2.322981,48.931501,39.00,20.01,318.68,1,10,1698746527274
$PKTHEAD,1,6601945,73
$VECINFO,1,0.00,0.00,0.00,0.00
$SNSYAW,100,-2.200000,0,0.000000,1,0.000000,1,0.000000,1,0.000000,1
$SNSRAWYAW,100,-2.160000,0,-2.320000,0,-2.160000,0,-2.160000,0,-2.160000,0
$SNSPULS,120,105,0,105,0,105,0,105,0
$PKTHEAD,1,6602041,74
$VECINFO,1,0.00,0.00,0.00,0.00
$SNSYAW,100,-2.200000,0,0.000000,1,0.000000,1,0.000000,1,0.000000,1
$SNSRAWYAW,100,-2.160000,0,-2.320000,0,-2.320000,0,-2.160000,0,-2.160000,0
$SNSPULS,80,70,0,70,0,70,0,69,0
$PKTHEAD,2,6602043,3,2.322945,48.931528,39.00,20.01,319.09,1,10,1698746527471
$PKTHEAD,1,6602143,75
$VECINFO,1,0.00,0.00,0.00,0.00
$SNSYAW,100,-2.200000,0,0.000000,1,0.000000,1,0.000000,1,0.000000,1
$SNSRAWYAW,100,-2.160000,0,-2.160000,0,-2.160000,0,-2.160000,0,-2.080000,0
$SNSPULS,120,105,0,104,0,105,0,105,0
$PKTHEAD,1,6602244,76
$VECINFO,1,0.00,0.00,0.00,0.00
$SNSYAW,100,-2.200000,0,0.000000,1,0.000000,1,0.000000,1,0.000000,1
$SNSRAWYAW,100,-2.160000,0,-2.320000,0,-2.320000,0,-2.320000,0,-2.160000,0
$SNSPULS,80,70,0,70,0,69,0,69,0
$PKTHEAD,2,6602245,3,2.322909,48.931555,39.00,20.00,319.52,1,10,1698746527674
$PKTHEAD,1,6602345,77
$VECINFO,1,0.00,0.00,0.00,0.00
$SNSYAW,100,-2.200000,0,0.000000,1,0.000000,1,0.000000,1,0.000000,1
$SNSRAWYAW,100,-2.160000,0,-2.160000,0,-2.160000,0,-2.160000,0,-2.160000,0
$SNSPULS,120,105,0,105,0,105,0,105,0
$PKTHEAD,1,6602441,78
$VECINFO,1,0.00,0.00,0.00,0.00
$SNSYAW,100,-2.300000,0,0.000000,1,0.000000,1,0.000000,1,0.000000,1
$SNSRAWYAW,100,-2.160000,0,-2.160000,0,-2.160000,0,-2.160000,0,-2.320000,0
$SNSPULS,80,71,0,70,0,70,0,69,0
$PKTHEAD,2,6602442,3,2.322874,48.931582,39.00,20.00,319.96,1,10,1698746527871
$PKTHEAD,1,6602548,79
$VECINFO,1,0.00,0.00,0.00,0.00
$SNSYAW,100,-2.400000,0,0.000000,1,0.000000,1,0.000000,1,0.000000,1
$SNSRAWYAW,100,-2.320000,0,-2.160000,0,-2.320000,0,-2.400000,0,-2.400000,0
$SNSPULS,120,105,0,105,0,105,0,105,0
$PKTHEAD,0,6602570,123
$GNGGA,100208.000,4855.8943,N,00219.3739,E,2,24,0.54,39.3,M,47.3,M,0.0,0*54
$GPGSA,A,3,29,11,05,26,20,30,07,09,04,16,06,,0.94,0.54,0.78,1*1C
$GLGSA,A,3,81,66,82,65,68,76,83,77,67,75,,,0.94,0.54,0.78,2*04
$GAGSA,A,3,10,11,04,,,,,,,,,,0.94,0.54,0.78,3*0A
$GPGSV,3,1,12,09,61,062,47.0,11,53,275,40.3,07,53,154,46.6,06,49,211,43.2,1*64
$GPGSV,3,2,12,20,40,301,41.4,49,33,176,45.0,30,29,185,45.4,04,27,065,31.1,1*6F
$GPGSV,3,3,12,16,11,051,23.9,05,07,300,37.7,29,06,336,35.2,26,05,026,21.2,1*65
$GLGSV,3,1,10,66,57,049,41.2,67,52,298,44.6,82,45,262,41.5,76,37,097,42.5,1*75
$GLGSV,3,2,10,83,33,320,32.9,75,22,031,27.8,81,20,210,42.4,77,17,144,25.9,1*74
$GLGSV,3,3,10,65,10,081,25.6,68,07,273,36.1,1*78
$GAGSV,3,1,9,04,74,263,39.7,11,56,252,37.7,10,47,206,40.7,19,42,065,,7*56
$GAGSV,3,2,9,36,29,315,,12,28,184,,09,22,251,,21,17,083,,7*47
$GAGSV,3,3,9,27,11,033,,7*7F
$GNRMC,100208.000,A,4855.8943,N,00219.3739,E,38.910,319.73,311023,,,D,V*04
$GNVTG,319.73,T,,M,38.910,N,72.101,K,D*2F
$GNDTM,W84,,0.0,N,0.0,E,0.0,W84*71
$GNACCURACY,1.8,0.3,0.2,5.0*19
$GNGST,100208.000,4.2,2.6,2.3,5.7,2.6,2.3,5.0*73
$GPEPE,03.48,05.00*4D
$GPGBS,100208.000,2.58,2.34,5.00,,,,,,*45
$PKTHEAD,1,6602644,80
$VECINFO,1,0.00,0.00,0.00,0.00
$SNSYAW,100,-2.300000,0,0.000000,1,0.000000,1,0.000000,1,0.000000,1
$SNSRAWYAW,100,-2.400000,0,-2.320000,0,-2.160000,0,-2.320000,0,-2.320000,0
$SNSPULS,80,70,0,70,0,70,0,70,0
$PKTHEAD,2,6602646,3,2.322847,48.931610,39.00,20.03,320.36,1,10,1698746528074
$PKTHEAD,1,6602746,81
$VECINFO,1,0.00,0.00,0.00,0.00
$SNSYAW,100,-2.300000,0,0.000000,1,0.000000,1,0.000000,1,0.000000,1
$SNSRAWYAW,100,-2.320000,0,-2.320000,0,-2.160000,0,-2.320000,0,-2.320000,0
$SNSPULS,120,105,0,105,0,105,0,104,0
$PKTHEAD,1,6602841,82
$VECINFO,1,0.00,0.00,0.00,0.00
$SNSYAW,100,-2.200000,0,0.000000,1,0.000000,1,0.000000,1,0.000000,1
$SNSRAWYAW,100,-2.320000,0,-2.160000,0,-2.160000,0,-2.160000,0,-2.080000,0
$SNSPULS,80,71,0,70,0,70,0,70,0
$PKTHEAD,2,6602843,3,2.322812,48.931638,39.00,20.03,320.74,1,10,1698746528271
$PKTHEAD,1,6602943,83
$VECINFO,1,0.00,0.00,0.00,0.00
$SNSYAW,100,-2.200000,0,0.000000,1,0.000000,1,0.000000,1,0.000000,1
$SNSRAWYAW,100,-2.160000,0,-2.160000,0,-2.160000,0,-2.080000,0,-2.160000,0
$SNSPULS,120,105,0,105,0,105,0,105,0
$PKTHEAD,1,6603044,84
$VECINFO,1,0.00,0.00,0.00,0.00
$SNSYAW,100,-2.400000,0,0.000000,1,0.000000,1,0.000000,1,0.000000,1
$SNSRAWYAW,100,-2.160000,0,-2.320000,0,-2.320000,0,-2.320000,0,-2.320000,0
$SNSPULS,80,71,0,70,0,71,0,70,0
$PKTHEAD,2,6603045,3,2.322777,48.931666,39.00,20.05,321.16,1,10,1698746528474
$PKTHEAD,1,6603145,85
$VECINFO,1,0.00,0.00,0.00,0.00
$SNSYAW,100,-2.300000,0,0.000000,1,0.000000,1,0.000000,1,0.000000,1
$SNSRAWYAW,100,-2.400000,0,-2.400000,0,-2.400000,0,-2.400000,0,-2.320000,0
$SNSPULS,120,105,0,106,0,105,0,104,0
$PKTHEAD,1,6603241,86
$VECINFO,1,0.00,0.00,0.00,0.00
$SNSYAW,100,-2.300000,0,0.000000,1,0.000000,1,0.000000,1,0.000000,1
$SNSRAWYAW,100,-2.320000,0,-2.320000,0,-2.320000,0,-2.400000,0,-2.320000,0
$SNSPULS,80,71,0,70,0,70,0,70,0
$PKTHEAD,2,6603243,3,2.322743,48.931694,39.00,20.06,321.63,1,10,1698746528671
$PKTHEAD,1,6603343,87
$VECINFO,1,0.00,0.00,0.00,0.00
$SNSYAW,100,-2.300000,0,0.000000,1,0.000000,1,0.000000,1,0.000000,1
$SNSRAWYAW,100,-2.320000,0,-2.320000,0,-2.320000,0,-2.320000,0,-2.320000,0
$SNSPULS,120,105,0,105,0,105,0,105,0
$PKTHEAD,1,6603441,88
$VECINFO,1,0.00,0.00,0.00,0.00
$SNSYAW,100,-2.100000,0,0.000000,1,0.000000,1,0.000000,1,0.000000,1
$SNSRAWYAW,100,-2.320000,0,-2.320000,0,-2.320000,0,-2.160000,0,-2.080000,0
$SNSPULS,80,70,0,70,0,70,0,70,0
$PKTHEAD,2,6603442,3,2.322709,48.931723,39.00,20.07,322.08,1,10,1698746528871
$PKTHEAD,0,6603537,124
$GNGGA,100209.000,4855.9026,N,00219.3640,E,2,23,0.55,39.2,M,47.3,M,0.0,0*56
$GPGSA,A,3,29,11,05,20,30,07,09,04,16,06,,,0.97,0.55,0.80,1*1D
$GLGSA,A,3,81,66,82,65,68,76,83,77,67,75,,,0.97,0.55,0.80,2*01
$GAGSA,A,3,10,11,04,,,,,,,,,,0.97,0.55,0.80,3*0F
$GPGSV,3,1,12,09,61,062,46.6,11,53,275,39.0,07,53,154,46.8,06,49,211,43.7,1*65
$GPGSV,3,2,12,20,40,301,41.5,49,33,176,46.0,30,29,185,45.1,04,27,065,39.0,1*61
$GPGSV,3,3,12,16,11,051,25.1,05,07,300,33.6,29,06,336,38.7,26,05,026,13.7,1*62
$GLGSV,3,1,10,66,57,049,41.2,67,52,298,44.6,82,45,262,41.4,76,37,097,42.5,1*74
$GLGSV,3,2,10,83,33,320,32.2,75,22,031,33.1,81,20,210,42.1,77,17,144,24.2,1*7C
$GLGSV,3,3,10,65,10,081,21.9,68,07,273,35.4,1*75
$GAGSV,3,1,9,04,74,263,39.5,11,56,252,33.9,10,47,206,41.0,19,42,065,,7*58
$GAGSV,3,2,9,36,29,315,,12,28,184,,09,22,251,,21,17,083,,7*47
$GAGSV,3,3,9,27,11,033,,7*7F
$GNRMC,100209.000,A,4855.9026,N,00219.3640,E,38.912,321.93,311023,,,D,V*06
$GNVTG,321.93,T,,M,38.912,N,72.103,K,D*2A
$GNDTM,W84,,0.0,N,0.0,E,0.0,W84*71
$GNACCURACY,1.8,0.3,0.2,5.1*18
$GNGST,100209.000,4.2,2.6,2.2,161.9,2.6,2.3,5.1*7F
$GPEPE,03.44,05.11*41
$GPGBS,100209.000,2.57,2.28,5.11,,,,,,*46
$PKTHEAD,1,6603543,89
$VECINFO,1,0.00,0.00,0.00,0.00
$SNSYAW,100,-2.000000,0,0.000000,1,0.000000,1,0.000000,1,0.000000,1
$SNSRAWYAW,100,-2.080000,0,-1.920000,0,-1.920000,0,-1.920000,0,-1.920000,0
$SNSPULS,120,106,0,105,0,105,0,105,0
$PKTHEAD,1,6603644,90
$VECINFO,1,0.00,0.00,0.00,0.00
$SNSYAW,100,-1.700000,0,0.000000,1,0.000000,1,0.000000,1,0.000000,1
$SNSRAWYAW,100,-1.920000,0,-1.840000,0,-1.840000,0,-1.840000,0,-1.680000,0
$SNSPULS,80,70,0,70,0,70,0,70,0
$PKTHEAD,2,6603645,3,2.322668,48.931763,39.00,20.07,322.51,1,10,1698746529107
$PKTHEAD,1,6603745,91
$VECINFO,1,0.00,0.00,0.00,0.00
$SNSYAW,100,-2.000000,0,0.000000,1,0.000000,1,0.000000,1,0.000000,1
$SNSRAWYAW,100,-1.680000,0,-1.840000,0,-1.920000,0,-1.920000,0,-1.920000,0
$SNSPULS,120,105,0,105,0,106,0,104,0
$PKTHEAD,1,6603847,92
$VECINFO,1,0.00,0.00,0.00,0.00
$SNSYAW,100,-2.000000,0,0.000000,1,0.000000,1,0.000000,1,0.000000,1
$SNSRAWYAW,100,-1.920000,0,-1.920000,0,-1.920000,0,-1.920000,0,-1.920000,0
$SNSPULS,80,71,0,70,0,70,0,70,0
$PKTHEAD,2,6603848,3,2.322634,48.931791,39.00,20.08,322.92,1,10,1698746529310
$PKTHEAD,1,6603943,93
$VECINFO,1,0.00,0.00,0.00,0.00
$SNSYAW,100,-2.000000,0,0.000000,1,0.000000,1,0.000000,1,0.000000,1
$SNSRAWYAW,100,-1.920000,0,-1.920000,0,-1.920000,0,-1.920000,0,-1.920000,0
$SNSPULS,120,105,0,106,0,105,0,105,0
$PKTHEAD,1,6604044,94
$VECINFO,1,0.00,0.00,0.00,0.00
$SNSYAW,100,-2.000000,0,0.000000,1,0.000000,1,0.000000,1,0.000000,1
$SNSRAWYAW,100,-1.920000,0,-1.920000,0,-1.920000,0,-1.840000,0,-1.840000,0
$SNSPULS,80,71,0,70,0,70,0,70,0
$PKTHEAD,2,6604045,3,2.322601,48.931820,39.00,20.07,323.32,1,10,1698746529507
$PKTHEAD,1,6604145,95
$VECINFO,1,0.00,0.00,0.00,0.00
$SNSYAW,100,-1.700000,0,0.000000,1,0.000000,1,0.000000,1,0.000000,1
$SNSRAWYAW,100,-1.920000,0,-1.840000,0,-1.840000,0,-1.680000,0,-1.680000,0
$SNSPULS,120,105,0,105,0,105,0,105,0
$PKTHEAD,1,6604242,96
$VECINFO,1,0.00,0.00,0.00,0.00
$SNSYAW,100,-1.800000,0,0.000000,1,0.000000,1,0.000000,1,0.000000,1
$SNSRAWYAW,100,-1.680000,0,-1.680000,0,-1.840000,0,-1.840000,0,-1.840000,0
$SNSPULS,80,71,0,71,0,71,0,70,0
$PKTHEAD,2,6604243,3,2.322569,48.931849,39.00,20.09,323.68,1,10,1698746529705
$PKTHEAD,1,6604343,97
$VECINFO,1,0.00,0.00,0.00,0.00
$SNSYAW,100,-1.800000,0,0.000000,1,0.000000,1,0.000000,1,0.000000,1
$SNSRAWYAW,100,-1.840000,0,-1.840000,0,-1.840000,0,-1.840000,0,-1.840000,0
$SNSPULS,120,106,0,105,0,105,0,105,0
$PKTHEAD,1,6604444,98
$VECINFO,1,0.00,0.00,0.00,0.00
$SNSYAW,100,-2.000000,0,0.000000,1,0.000000,1,0.000000,1,0.000000,1
$SNSRAWYAW,100,-1.840000,0,-1.840000,0,-1.920000,0,-1.920000,0,-1.920000,0
$SNSPULS,80,70,0,71,0,71,0,70,0
$PKTHEAD,2,6604445,3,2.322536,48.931879,39.00,20.11,324.06,1,10,1698746529907
$PKTHEAD,1,6604555,99
$VECINFO,1,0.00,0.00,0.00,0.00
$SNSYAW,100,-1.700000,0,0.000000,1,0.000000,1,0.000000,1,0.000000,1
$SNSRAWYAW,100,-1.920000,0,-1.920000,0,-1.920000,0,-1.920000,0,-1.840000,0
$SNSPULS,120,106,0,106,0,105,0,106,0
$PKTHEAD,0,6604559,125
$GNGGA,100210.000,4855.9115,N,00219.3538,E,2,24,0.54,39.0,M,47.3,M,0.0,0*57
$GPGSA,A,3,29,11,05,26,20,30,07,09,04,16,06,,0.94,0.54,0.78,1*1C
$GLGSA,A,3,81,66,82,65,68,76,83,77,67,75,,,0.94,0.54,0.78,2*04
$GAGSA,A,3,10,11,04,,,,,,,,,,0.94,0.54,0.78,3*0A
$GPGSV,3,1,12,09,61,062,46.6,11,53,275,39.4,07,53,154,47.0,06,49,211,43.9,1*66
$GPGSV,3,2,12,20,40,301,41.5,49,33,176,46.0,30,29,185,45.1,04,27,065,46.1,1*68
$GPGSV,3,3,12,16,11,051,28.3,05,07,300,36.3,29,06,336,34.1,26,05,026,20.6,1*66
$GLGSV,3,1,10,66,57,049,40.9,67,52,298,45.0,82,45,262,41.7,76,37,097,42.7,1*78
$GLGSV,3,2,10,83,33,320,31.7,75,22,031,37.0,81,20,210,42.8,77,17,144,20.2,1*72
$GLGSV,3,3,10,65,10,081,21.6,68,07,273,36.7,1*7A
$GAGSV,3,1,9,04,74,263,39.2,11,56,252,34.2,10,47,206,41.4,19,42,065,,7*57
$GAGSV,3,2,9,36,29,315,,12,28,184,,09,22,251,,21,17,083,,7*47
$GAGSV,3,3,9,27,11,033,,7*7F
$GNRMC,100210.000,A,4855.9115,N,00219.3538,E,39.093,324.08,311023,,,D,V*05
$GNVTG,324.08,T,,M,39.093,N,72.440,K,D*2E
$GNDTM,W84,,0.0,N,0.0,E,0.0,W84*71
$GNACCURACY,1.7,0.3,0.2,4.9*1E
$GNGST,100210.000,4.1,2.6,2.1,158.5,2.5,2.2,4.9*7A
$GPEPE,03.33,04.90*49
$GPGBS,100210.000,2.52,2.17,4.90,,,,,,*4F
$PKTHEAD,1,6604648,100
$VECINFO,1,0.00,0.00,0.00,0.00
$SNSYAW,100,-1.700000,0,0.000000,1,0.000000,1,0.000000,1,0.000000,1
$SNSRAWYAW,100,-1.680000,0,-1.840000,0,-1.840000,0,-1.680000,0,-1.680000,0
$SNSPULS,80,71,0,70,0,71,0,70,0
$PKTHEAD,2,6604649,3,2.322516,48.931902,39.00,20.13,324.45,1,10,1698746530089
$PKTHEAD,1,6604744,101
$VECINFO,1,0.00,0.00,0.00,0.00
$SNSYAW,100,-2.000000,0,0.000000,1,0.000000,1,0.000000,1,0.000000,1
$SNSRAWYAW,100,-1.680000,0,-1.680000,0,-1.680000,0,-1.840000,0,-1.840000,0
$SNSPULS,120,106,0,106,0,106,0,106,0
$PKTHEAD,1,6604845,102
$VECINFO,1,0.00,0.00,0.00,0.00
$SNSYAW,100,-2.000000,0,0.000000,1,0.000000,1,0.000000,1,0.000000,1
$SNSRAWYAW,100,-1.920000,0,-1.920000,0,-1.920000,0,-1.920000,0,-1.920000,0
$SNSPULS,80,71,0,71,0,70,0,70,0
