$PKTHEAD,2,5151493,3,2.480653,48.829007,44.00,21.67,79.50,1,10,1698745076939
$PKTHEAD,0,5151576,208
$GNGGA,093757.000,4849.7396,N,00228.8358,E,2,22,0.63,44.5,M,47.3,M,0.0,0*54
$GPGSA,A,3,03,07,11,20,04,09,06,16,,,,,1.24,0.63,1.07,1*11
$GLGSA,A,3,65,75,81,83,82,67,76,66,,,,,1.24,0.63,1.07,2*0D
$GAGSA,A,3,27,04,11,36,12,10,,,,,,,1.24,0.63,1.07,3*0E
$GPGSV,3,1,12,09,72,059,40.5,06,59,224,39.5,11,49,291,45.0,07,43,161,43.6,1*64
$GPGSV,3,2,12,04,37,061,39.3,49,33,176,41.0,20,30,299,44.1,30,18,186,,1*79
$GPGSV,3,3,12,16,08,061,33.6,03,08,111,17.8,26,07,035,23.5,29,03,345,12.3,1*66
$GLGSV,3,1,9,66,65,028,42.0,82,49,281,44.9,67,43,284,46.3,81,32,215,44.4,1*4A
$GLGSV,3,2,9,76,29,108,36.9,75,27,042,46.2,83,25,330,33.3,65,19,073,38.6,1*43
$GLGSV,3,3,9,77,05,149,,1*78
$GAGSV,3,1,9,04,66,249,39.8,11,59,270,39.9,10,56,213,42.4,19,50,061,,7*5F
$GAGSV,3,2,9,12,38,184,40.6,36,22,320,39.5,09,15,246,,21,11,090,,7*40
$GAGSV,3,3,9,27,11,040,22.5,7*60
$GNRMC,093757.000,A,4849.7396,N,00228.8358,E,42.637,79.66,311023,,,D,V*3C
$GNVTG,79.66,T,,M,42.637,N,79.006,K,D*14
$GNDTM,W84,,0.0,N,0.0,E,0.0,W84*71
$GNACCURACY,1.7,0.3,0.2,5.0*16
$GNGST,093757.000,2.9,2.5,2.2,156.6,2.4,2.3,5.0*7C
$GPEPE,03.31,05.01*42
$GPGBS,093757.000,2.42,2.26,5.01,,,,,,*48
$PKTHEAD,1,5151593,161
$VECINFO,1,0.00,0.00,0.00,0.00
$SNSYAW,100,-0.200000,0,0.000000,1,0.000000,1,0.000000,1,0.000000,1
$SNSRAWYAW,100,-0.560000,0,-0.480000,0,-0.480000,0,-0.480000,0,-0.320000,0
$SNSPULS,80,76,0,75,0,75,0,75,0
$PKTHEAD,1,5151694,162
$VECINFO,1,0.00,0.00,0.00,0.00
$SNSYAW,100,-0.500000,0,0.000000,1,0.000000,1,0.000000,1,0.000000,1
$SNSRAWYAW,100,-0.240000,0,-0.320000,0,-0.480000,0,-0.480000,0,-0.480000,0
$SNSPULS,120,113,0,113,0,113,0,113,0
$PKTHEAD,2,5151696,3,2.480711,48.829014,44.00,21.63,79.67,1,10,1698745077118
$PKTHEAD,1,5151792,163
$VECINFO,1,0.00,0.00,0.00,0.00
$SNSYAW,100,-0.600000,0,0.000000,1,0.000000,1,0.000000,1,0.000000,1
$SNSRAWYAW,100,-0.560000,0,-0.560000,0,-0.560000,0,-0.560000,0,-0.560000,0
$SNSPULS,80,75,0,75,0,75,0,75,0
$PKTHEAD,1,5151894,164
$VECINFO,1,0.00,0.00,0.00,0.00
$SNSYAW,100,-0.600000,0,0.000000,1,0.000000,1,0.000000,1,0.000000,1
$SNSRAWYAW,100,-0.560000,0,-0.720000,0,-0.720000,0,-0.720000,0,-0.720000,0
$SNSPULS,120,113,0,113,0,113,0,112,0
$PKTHEAD,2,5151895,3,2.480768,48.829021,44.00,21.59,79.81,1,10,1698745077318
$PKTHEAD,1,5151991,165
$VECINFO,1,0.00,0.00,0.00,0.00
$SNSYAW,100,-0.500000,0,0.000000,1,0.000000,1,0.000000,1,0.000000,1
$SNSRAWYAW,100,-0.720000,0,-0.720000,0,-0.720000,0,-0.560000,0,-0.560000,0
$SNSPULS,80,75,0,75,0,75,0,75,0
$PKTHEAD,1,5152092,166
$VECINFO,1,0.00,0.00,0.00,0.00
$SNSYAW,100,-0.100000,0,0.000000,1,0.000000,1,0.000000,1,0.000000,1
$SNSRAWYAW,100,-0.560000,0,-0.560000,0,-0.560000,0,-0.560000,0,-0.480000,0
$SNSPULS,120,112,0,112,0,112,0,113,0
$PKTHEAD,2,5152094,3,2.480826,48.829028,44.00,21.57,79.92,1,10,1698745077516
$PKTHEAD,1,5152194,167
$VECINFO,1,0.00,0.00,0.00,0.00
$SNSYAW,100,0.000000,0,0.000000,1,0.000000,1,0.000000,1,0.000000,1
$SNSRAWYAW,100,-0.320000,0,-0.320000,0,-0.240000,0,-0.240000,0,-0.080000,0
$SNSPULS,80,75,0,75,0,75,0,75,0
$PKTHEAD,1,5152296,168
$VECINFO,1,0.00,0.00,0.00,0.00
$SNSYAW,100,0.400000,0,0.000000,1,0.000000,1,0.000000,1,0.000000,1
$SNSRAWYAW,100,-0.080000,0,0.000000,0,0.000000,0,0.000000,0,0.160000,0
$SNSPULS,120,113,0,113,0,112,0,112,0
$PKTHEAD,2,5152297,3,2.480884,48.829034,44.00,21.53,79.95,1,10,1698745077720
$PKTHEAD,1,5152392,169
$VECINFO,1,0.00,0.00,0.00,0.00
$SNSYAW,100,0.500000,0,0.000000,1,0.000000,1,0.000000,1,0.000000,1
$SNSRAWYAW,100,0.160000,0,0.240000,0,0.240000,0,0.240000,0,0.240000,0
$SNSPULS,80,74,0,75,0,75,0,74,0
$PKTHEAD,1,5152494,170
$VECINFO,1,0.00,0.00,0.00,0.00
$SNSYAW,100,0.500000,0,0.000000,1,0.000000,1,0.000000,1,0.000000,1
$SNSRAWYAW,100,0.240000,0,0.240000,0,0.400000,0,0.400000,0,0.400000,0
$SNSPULS,120,112,0,112,0,112,0,112,0
$PKTHEAD,2,5152496,3,2.480941,48.829041,44.00,21.50,79.90,1,10,1698745077918
$PKTHEAD,0,5152588,209
$GNGGA,093758.000,4849.7414,N,00228.8532,E,2,22,0.63,44.0,M,47.3,M,0.0,0*59
$GPGSA,A,3,03,07,11,20,04,09,06,16,,,,,1.24,0.63,1.07,1*11
$GLGSA,A,3,65,75,81,83,82,67,76,66,,,,,1.24,0.63,1.07,2*0D
$GAGSA,A,3,27,04,11,36,12,10,,,,,,,1.24,0.63,1.07,3*0E
$GPGSV,3,1,12,09,72,059,40.5,06,59,224,39.3,11,49,291,44.7,07,43,161,43.7,1*65
$GPGSV,3,2,12,04,37,061,38.7,49,33,176,41.0,20,30,299,44.1,30,18,186,,1*7C
$GPGSV,3,3,12,16,08,061,33.4,03,08,111,20.7,26,07,035,24.4,29,03,345,12.3,1*69
$GLGSV,3,1,9,66,65,028,41.9,82,49,281,45.2,67,43,284,46.4,81,32,215,44.4,1*4D
$GLGSV,3,2,9,76,29,108,36.8,75,27,042,46.3,83,25,330,33.5,65,19,073,39.1,1*43
$GLGSV,3,3,9,77,05,149,,1*78
$GAGSV,3,1,9,04,66,249,39.8,11,59,270,39.8,10,56,213,42.4,19,50,061,,7*5E
$GAGSV,3,2,9,12,38,184,40.5,36,22,320,39.3,09,15,246,,21,11,090,,7*45
$GAGSV,3,3,9,27,11,040,18.0,7*6C
$GNRMC,093758.000,A,4849.7414,N,00228.8532,E,41.754,80.16,311023,,,D,V*32
$GNVTG,80.16,T,,M,41.754,N,77.371,K,D*1F
$GNDTM,W84,,0.0,N,0.0,E,0.0,W84*71
$GNACCURACY,1.8,0.3,0.2,5.6*1F
$GNGST,093758.000,2.9,2.7,2.5,32.7,2.7,2.6,5.6*44
$GPEPE,03.70,05.57*44
$GPGBS,093758.000,2.67,2.57,5.57,,,,,,*45
$PKTHEAD,1,5152595,171
$VECINFO,1,0.00,0.00,0.00,0.00
$SNSYAW,100,0.600000,0,0.000000,1,0.000000,1,0.000000,1,0.000000,1
$SNSRAWYAW,100,0.400000,0,0.240000,0,0.240000,0,0.240000,0,0.400000,0
$SNSPULS,80,75,0,74,0,74,0,75,0
$PKTHEAD,1,5152691,172
$VECINFO,1,0.00,0.00,0.00,0.00
$SNSYAW,100,0.500000,0,0.000000,1,0.000000,1,0.000000,1,0.000000,1
$SNSRAWYAW,100,0.400000,0,0.400000,0,0.400000,0,0.400000,0,0.400000,0
$SNSPULS,120,112,0,112,0,112,0,112,0
$PKTHEAD,2,5152695,3,2.480999,48.829047,44.00,21.46,79.89,1,10,1698745078103
$PKTHEAD,1,5152793,173
$VECINFO,1,0.00,0.00,0.00,0.00
$SNSYAW,100,0.500000,0,0.000000,1,0.000000,1,0.000000,1,0.000000,1
$SNSRAWYAW,100,0.400000,0,0.400000,0,0.400000,0,0.400000,0,0.400000,0
$SNSPULS,80,74,0,75,0,74,0,74,0
$PKTHEAD,1,5152895,174
$VECINFO,1,0.00,0.00,0.00,0.00
$SNSYAW,100,0.400000,0,0.000000,1,0.000000,1,0.000000,1,0.000000,1
$SNSRAWYAW,100,0.400000,0,0.240000,0,0.240000,0,0.240000,0,0.240000,0
$SNSPULS,120,112,0,112,0,112,0,112,0
$PKTHEAD,2,5152895,3,2.481056,48.829054,44.00,21.43,79.85,1,10,1698745078307
$PKTHEAD,1,5152996,175
$VECINFO,1,0.00,0.00,0.00,0.00
$SNSYAW,100,0.400000,0,0.000000,1,0.000000,1,0.000000,1,0.000000,1
$SNSRAWYAW,100,0.240000,0,0.160000,0,0.160000,0,0.240000,0,0.240000,0
$SNSPULS,80,75,0,74,0,74,0,74,0
$PKTHEAD,1,5153091,176
$VECINFO,1,0.00,0.00,0.00,0.00
$SNSYAW,100,0.200000,0,0.000000,1,0.000000,1,0.000000,1,0.000000,1
$SNSRAWYAW,100,0.240000,0,0.240000,0,0.240000,0,0.240000,0,0.160000,0
$SNSPULS,120,111,0,112,0,111,0,112,0
$PKTHEAD,2,5153092,3,2.481113,48.829060,44.00,21.38,79.82,1,10,1698745078503
$PKTHEAD,1,5153193,177
$VECINFO,1,0.00,0.00,0.00,0.00
$SNSYAW,100,0.200000,0,0.000000,1,0.000000,1,0.000000,1,0.000000,1
$SNSRAWYAW,100,0.160000,0,0.160000,0,0.160000,0,0.240000,0,0.160000,0
$SNSPULS,80,74,0,74,0,75,0,74,0
$PKTHEAD,1,5153294,178
$VECINFO,1,0.00,0.00,0.00,0.00
$SNSYAW,100,0.100000,0,0.000000,1,0.000000,1,0.000000,1,0.000000,1
$SNSRAWYAW,100,0.000000,0,0.000000,0,0.000000,0,0.000000,0,0.000000,0
$SNSPULS,120,112,0,112,0,111,0,111,0
$PKTHEAD,2,5153295,3,2.481171,48.829067,44.00,21.35,79.82,1,10,1698745078706
$PKTHEAD,1,5153395,179
$VECINFO,1,0.00,0.00,0.00,0.00
$SNSYAW,100,0.100000,0,0.000000,1,0.000000,1,0.000000,1,0.000000,1
$SNSRAWYAW,100,0.000000,0,0.000000,0,0.000000,0,0.000000,0,0.000000,0
$SNSPULS,80,74,0,74,0,74,0,75,0
$PKTHEAD,1,5153492,180
$VECINFO,1,0.00,0.00,0.00,0.00
$SNSYAW,100,0.200000,0,0.000000,1,0.000000,1,0.000000,1,0.000000,1
$SNSRAWYAW,100,0.000000,0,0.000000,0,0.000000,0,0.000000,0,0.000000,0
$SNSPULS,120,112,0,112,0,111,0,111,0
$PKTHEAD,2,5153493,3,2.481228,48.829074,44.00,21.33,79.82,1,10,1698745078904
$PKTHEAD,0,5153580,210
$GNGGA,093759.000,4849.7436,N,00228.8701,E,2,22,0.63,43.7,M,47.3,M,0.0,0*5A
$GPGSA,A,3,03,07,11,20,04,09,06,16,,,,,1.24,0.63,1.07,1*11
$GLGSA,A,3,65,75,81,83,82,67,76,66,,,,,1.24,0.63,1.07,2*0D
$GAGSA,A,3,27,04,11,36,12,10,,,,,,,1.24,0.63,1.07,3*0E
$GPGSV,3,1,12,09,72,059,40.7,06,59,224,39.1,11,49,291,45.2,07,43,161,43.8,1*6E
$GPGSV,3,2,12,04,37,061,38.4,49,33,176,41.0,20,30,299,44.0,30,18,186,30.0,1*63
$GPGSV,3,3,12,16,08,061,33.8,03,08,111,20.7,26,07,035,23.8,29,03,345,12.6,1*6B
$GLGSV,3,1,9,66,65,028,41.9,82,49,281,45.0,67,43,284,46.2,81,32,215,44.2,1*4F
$GLGSV,3,2,9,76,29,108,36.5,75,27,042,46.4,83,25,330,33.4,65,19,073,39.3,1*4A
$GLGSV,3,3,9,77,05,149,,1*78
$GAGSV,3,1,9,04,66,249,39.8,11,59,270,39.9,10,56,213,42.4,19,50,061,,7*5F
$GAGSV,3,2,9,12,38,184,40.4,36,22,320,39.1,09,15,246,,21,11,090,,7*46
$GAGSV,3,3,9,27,11,040,26.1,7*60
$GNRMC,093759.000,A,4849.7436,N,00228.8701,E,42.056,80.01,311023,,,D,V*31
$GNVTG,80.01,T,,M,42.056,N,77.929,K,D*18
$GNDTM,W84,,0.0,N,0.0,E,0.0,W84*71
$GNACCURACY,1.7,0.3,0.2,5.6*10
$GNGST,093759.000,2.9,2.5,2.3,158.7,2.5,2.3,5.6*7B
$GPEPE,03.37,05.57*47
$GPGBS,093759.000,2.46,2.31,5.57,,,,,,*47
$PKTHEAD,1,5153594,181
$VECINFO,1,0.00,0.00,0.00,0.00
$SNSYAW,100,0.100000,0,0.000000,1,0.000000,1,0.000000,1,0.000000,1
$SNSRAWYAW,100,0.000000,0,0.160000,0,0.000000,0,0.000000,0,0.000000,0
$SNSPULS,80,75,0,74,0,74,0,74,0
$PKTHEAD,1,5153695,182
$VECINFO,1,0.00,0.00,0.00,0.00
$SNSYAW,100,0.100000,0,0.000000,1,0.000000,1,0.000000,1,0.000000,1
$SNSRAWYAW,100,0.000000,0,0.000000,0,0.000000,0,0.000000,0,0.000000,0
$SNSPULS,120,111,0,112,0,112,0,111,0
$PKTHEAD,2,5153697,3,2.481284,48.829080,43.00,21.30,79.88,1,10,1698745079115
$PKTHEAD,1,5153792,183
$VECINFO,1,0.00,0.00,0.00,0.00
$SNSYAW,100,0.100000,0,0.000000,1,0.000000,1,0.000000,1,0.000000,1
$SNSRAWYAW,100,0.000000,0,0.000000,0,0.000000,0,0.000000,0,0.000000,0
$SNSPULS,80,74,0,74,0,74,0,75,0
$PKTHEAD,1,5153896,184
$VECINFO,1,0.00,0.00,0.00,0.00
$SNSYAW,100,0.100000,0,0.000000,1,0.000000,1,0.000000,1,0.000000,1
$SNSRAWYAW,100,0.000000,0,0.000000,0,0.000000,0,0.000000,0,0.000000,0
$SNSPULS,120,112,0,112,0,111,0,111,0
$PKTHEAD,2,5153897,3,2.481341,48.829086,43.00,21.29,79.90,1,10,1698745079316
$PKTHEAD,1,5153994,185
$VECINFO,1,0.00,0.00,0.00,0.00
$SNSYAW,100,0.000000,0,0.000000,1,0.000000,1,0.000000,1,0.000000,1
$SNSRAWYAW,100,0.000000,0,0.000000,0,0.000000,0,0.000000,0,0.000000,0
$SNSPULS,80,74,0,74,0,74,0,74,0
$PKTHEAD,1,5154095,186
$VECINFO,1,0.00,0.00,0.00,0.00
$SNSYAW,100,0.200000,0,0.000000,1,0.000000,1,0.000000,1,0.000000,1
$SNSRAWYAW,100,0.000000,0,0.000000,0,0.000000,0,0.000000,0,0.000000,0
$SNSPULS,120,112,0,112,0,111,0,111,0
$PKTHEAD,2,5154097,3,2.481398,48.829093,43.00,21.28,79.91,1,10,1698745079515
$PKTHEAD,1,5154193,187
$VECINFO,1,0.00,0.00,0.00,0.00
$SNSYAW,100,0.100000,0,0.000000,1,0.000000,1,0.000000,1,0.000000,1
$SNSRAWYAW,100,0.000000,0,0.000000,0,0.160000,0,0.000000,0,0.000000,0
$SNSPULS,80,74,0,74,0,75,0,75,0
$PKTHEAD,1,5154295,188
$VECINFO,1,0.00,0.00,0.00,0.00
$SNSYAW,100,0.000000,0,0.000000,1,0.000000,1,0.000000,1,0.000000,1
$SNSRAWYAW,100,0.000000,0,0.000000,0,0.000000,0,0.000000,0,-0.080000,0
$SNSPULS,120,112,0,112,0,111,0,111,0
$PKTHEAD,2,5154303,3,2.481455,48.829100,43.00,21.29,79.92,1,10,1698745079715
$PKTHEAD,1,5154395,189
$VECINFO,1,0.00,0.00,0.00,0.00
$SNSYAW,100,0.200000,0,0.000000,1,0.000000,1,0.000000,1,0.000000,1
$SNSRAWYAW,100,-0.240000,0,-0.080000,0,0.000000,0,0.000000,0,0.000000,0
$SNSPULS,80,74,0,74,0,74,0,74,0
$PKTHEAD,1,5154492,190
$VECINFO,1,0.00,0.00,0.00,0.00
$SNSYAW,100,0.000000,0,0.000000,1,0.000000,1,0.000000,1,0.000000,1
$SNSRAWYAW,100,0.000000,0,0.000000,0,0.000000,0,0.000000,0,0.000000,0
$SNSPULS,120,112,0,112,0,112,0,112,0
$PKTHEAD,2,5154496,3,2.481513,48.829107,43.00,21.30,79.92,1,10,1698745079912
$PKTHEAD,1,5154594,191
$VECINFO,1,0.00,0.00,0.00,0.00
$SNSYAW,100,0.000000,0,0.000000,1,0.000000,1,0.000000,1,0.000000,1
$SNSRAWYAW,100,0.000000,0,0.000000,0,0.000000,0,0.000000,0,-0.080000,0
$SNSPULS,80,75,0,75,0,74,0,74,0
$PKTHEAD,0,5154653,211
$GNGGA,093800.000,4849.7462,N,00228.8873,E,2,23,0.59,43.8,M,47.3,M,0.0,0*55
$GPGSA,A,3,03,07,11,30,20,04,09,06,16,,,,1.15,0.59,0.99,1*1F
$GLGSA,A,3,65,75,81,83,82,67,76,66,,,,,1.15,0.59,0.99,2*00
$GAGSA,A,3,27,04,11,36,12,10,,,,,,,1.15,0.59,0.99,3*03
$GPGSV,3,1,12,09,72,059,37.1,06,59,224,38.9,11,49,291,45.1,07,43,161,43.8,1*62
$GPGSV,3,2,12,04,37,061,38.5,49,33,176,40.0,20,30,299,44.0,30,18,186,32.8,1*69
$GPGSV,3,3,12,16,08,061,31.1,03,08,111,13.3,26,07,035,22.7,29,03,345,12.6,1*6A
$GLGSV,3,1,9,66,65,028,39.2,82,49,281,45.2,67,43,284,46.2,81,32,215,44.2,1*49
$GLGSV,3,2,9,76,29,108,36.0,75,27,042,46.4,83,25,330,33.4,65,19,073,39.3,1*4F
$GLGSV,3,3,9,77,05,149,,1*78
$GAGSV,3,1,9,04,66,249,39.7,11,59,270,39.8,10,56,213,42.4,19,50,061,,7*51
$GAGSV,3,2,9,12,38,184,40.3,36,22,320,38.9,09,15,246,,21,11,090,,7*48
$GAGSV,3,3,9,27,11,040,29.2,7*6C
$GNRMC,093800.000,A,4849.7462,N,00228.8873,E,41.408,79.89,311023,,,D,V*33
$GNVTG,79.89,T,,M,41.408,N,76.729,K,D*1D
$GNDTM,W84,,0.0,N,0.0,E,0.0,W84*71
$GNACCURACY,1.7,0.3,0.2,5.6*10
$GNGST,093800.000,2.9,2.5,2.3,137.5,2.4,2.4,5.6*75
$GPEPE,03.34,05.61*41
$GPGBS,093800.000,2.37,2.35,5.61,,,,,,*43
$PKTHEAD,1,5154694,192
$VECINFO,1,0.00,0.00,0.00,0.00
$SNSYAW,100,0.000000,0,0.000000,1,0.000000,1,0.000000,1,0.000000,1
$SNSRAWYAW,100,-0.240000,0,-0.240000,0,-0.240000,0,-0.080000,0,-0.080000,0
$SNSPULS,120,112,0,112,0,112,0,112,0
$PKTHEAD,2,5154695,3,2.481563,48.829113,43.00,21.32,79.94,1,10,1698745080041
$PKTHEAD,1,5154792,193
$VECINFO,1,0.00,0.00,0.00,0.00
$SNSYAW,100,0.000000,0,0.000000,1,0.000000,1,0.000000,1,0.000000,1
$SNSRAWYAW,100,-0.080000,0,-0.240000,0,-0.080000,0,-0.080000,0,0.000000,0
$SNSPULS,80,75,0,75,0,74,0,74,0
$PKTHEAD,1,5154893,194
$VECINFO,1,0.00,0.00,0.00,0.00
$SNSYAW,100,0.000000,0,0.000000,1,0.000000,1,0.000000,1,0.000000,1
$SNSRAWYAW,100,0.000000,0,0.000000,0,0.000000,0,0.000000,0,0.000000,0
$SNSPULS,120,112,0,112,0,112,0,112,0
$PKTHEAD,2,5154894,3,2.481621,48.829120,43.00,21.33,79.95,1,10,1698745080240
$PKTHEAD,1,5154994,195
$VECINFO,1,0.00,0.00,0.00,0.00
$SNSYAW,100,0.000000,0,0.000000,1,0.000000,1,0.000000,1,0.000000,1
$SNSRAWYAW,100,0.000000,0,0.000000,0,0.000000,0,0.000000,0,0.000000,0
$SNSPULS,80,75,0,75,0,75,0,75,0
$PKTHEAD,1,5155091,196
$VECINFO,1,0.00,0.00,0.00,0.00
$SNSYAW,100,0.000000,0,0.000000,1,0.000000,1,0.000000,1,0.000000,1
$SNSRAWYAW,100,-0.080000,0,-0.080000,0,0.000000,0,0.000000,0,0.000000,0
$SNSPULS,120,112,0,112,0,112,0,112,0
$PKTHEAD,2,5155092,3,2.481678,48.829127,43.00,21.37,79.96,1,10,1698745080438
$PKTHEAD,1,5155192,197
$VECINFO,1,0.00,0.00,0.00,0.00
$SNSYAW,100,0.100000,0,0.000000,1,0.000000,1,0.000000,1,0.000000,1
$SNSRAWYAW,100,0.000000,0,0.000000,0,0.000000,0,0.000000,0,0.000000,0
$SNSPULS,80,75,0,75,0,75,0,75,0
$PKTHEAD,1,5155295,198
$VECINFO,1,0.00,0.00,0.00,0.00
$SNSYAW,100,0.000000,0,0.000000,1,0.000000,1,0.000000,1,0.000000,1
$SNSRAWYAW,100,0.000000,0,0.000000,0,0.000000,0,0.000000,0,0.000000,0
$SNSPULS,120,113,0,113,0,112,0,112,0
$PKTHEAD,2,5155296,3,2.481736,48.829134,43.00,21.40,79.96,1,10,1698745080642
$PKTHEAD,1,5155392,199
$VECINFO,1,0.00,0.00,0.00,0.00
$SNSYAW,100,0.000000,0,0.000000,1,0.000000,1,0.000000,1,0.000000,1
$SNSRAWYAW,100,-0.080000,0,-0.080000,0,-0.080000,0,-0.080000,0,-0.080000,0
$SNSPULS,80,75,0,75,0,75,0,75,0
$PKTHEAD,1,5155494,200
$VECINFO,1,0.00,0.00,0.00,0.00
$SNSYAW,100,0.100000,0,0.000000,1,0.000000,1,0.000000,1,0.000000,1
$SNSRAWYAW,100,-0.080000,0,0.000000,0,0.000000,0,0.000000,0,0.000000,0
$SNSPULS,120,113,0,113,0,112,0,112,0
$PKTHEAD,2,5155495,3,2.481793,48.829140,43.00,21.42,79.96,1,10,1698745080841
$PKTHEAD,0,5155593,212
$GNGGA,093801.000,4849.7479,N,00228.9046,E,2,24,0.58,43.7,M,47.3,M,0.0,0*58
$GPGSA,A,3,03,07,11,30,20,04,09,06,16,26,,,1.12,0.58,0.95,1*11
$GLGSA,A,3,65,75,81,83,82,67,76,66,,,,,1.12,0.58,0.95,2*0A
$GAGSA,A,3,27,04,11,36,12,10,,,,,,,1.12,0.58,0.95,3*09
$GPGSV,3,1,12,09,72,059,40.1,06,59,224,38.8,11,49,291,45.1,07,43,161,43.7,1*6C
$GPGSV,3,2,12,04,37,061,38.6,49,33,176,40.0,20,30,299,44.0,30,18,186,32.6,1*64
$GPGSV,3,3,12,16,08,061,32.5,03,08,111,13.3,26,07,035,29.4,29,03,345,12.6,1*65
$GLGSV,3,1,9,66,65,028,42.1,82,49,281,45.3,67,43,284,46.5,81,32,215,44.2,1*40
$GLGSV,3,2,9,76,29,108,35.7,75,27,042,46.5,83,25,330,33.4,65,19,073,39.3,1*4A
$GLGSV,3,3,9,77,05,149,,1*78
$GAGSV,3,1,9,04,66,249,39.7,11,59,270,39.9,10,56,213,42.5,19,50,061,,7*51
$GAGSV,3,2,9,12,38,184,40.2,36,22,320,38.8,09,15,246,,21,11,090,,7*48
$GAGSV,3,3,9,27,11,040,29.0,7*6E
$GNRMC,093801.000,A,4849.7479,N,00228.9046,E,41.778,79.66,311023,,,D,V*32
$GNVTG,79.66,T,,M,41.778,N,77.414,K,D*14
$GNDTM,W84,,0.0,N,0.0,E,0.0,W84*71
$GNACCURACY,1.7,0.5,0.3,5.5*14
$GNGST,093801.000,2.9,2.5,2.2,147.4,2.4,2.3,5.5*77
$GPEPE,03.28,05.46*49
$GPGBS,093801.000,2.37,2.26,5.46,,,,,,*45
$PKTHEAD,1,5155601,201
$VECINFO,1,0.00,0.00,0.00,0.00
$SNSYAW,100,0.000000,0,0.000000,1,0.000000,1,0.000000,1,0.000000,1
$SNSRAWYAW,100,0.000000,0,0.000000,0,0.000000,0,0.000000,0,0.000000,0
$SNSPULS,80,75,0,75,0,75,0,75,0
$PKTHEAD,1,5155691,202
$VECINFO,1,0.00,0.00,0.00,0.00
$SNSYAW,100,0.100000,0,0.000000,1,0.000000,1,0.000000,1,0.000000,1
$SNSRAWYAW,100,0.000000,0,0.000000,0,0.000000,0,0.000000,0,0.000000,0
$SNSPULS,120,113,0,113,0,113,0,113,0
$PKTHEAD,2,5155693,3,2.481855,48.829147,43.00,21.46,79.91,1,10,1698745081098
$PKTHEAD,1,5155797,203
$VECINFO,1,0.00,0.00,0.00,0.00
$SNSYAW,100,0.200000,0,0.000000,1,0.000000,1,0.000000,1,0.000000,1
$SNSRAWYAW,100,0.000000,0,0.000000,0,0.000000,0,0.160000,0,0.160000,0
$SNSPULS,80,76,0,76,0,75,0,75,0
$PKTHEAD,1,5155894,204
$VECINFO,1,0.00,0.00,0.00,0.00
$SNSYAW,100,0.100000,0,0.000000,1,0.000000,1,0.000000,1,0.000000,1
$SNSRAWYAW,100,0.160000,0,0.000000,0,0.000000,0,0.000000,0,0.160000,0
$SNSPULS,120,113,0,113,0,113,0,113,0
$PKTHEAD,2,5155894,3,2.481912,48.829153,43.00,21.51,79.89,1,10,1698745081301
$PKTHEAD,1,5155995,205
$VECINFO,1,0.00,0.00,0.00,0.00
$SNSYAW,100,0.200000,0,0.000000,1,0.000000,1,0.000000,1,0.000000,1
$SNSRAWYAW,100,0.160000,0,0.000000,0,0.000000,0,0.160000,0,0.160000,0
$SNSPULS,80,75,0,75,0,75,0,75,0
$PKTHEAD,1,5156091,206
$VECINFO,1,0.00,0.00,0.00,0.00
$SNSYAW,100,0.100000,0,0.000000,1,0.000000,1,0.000000,1,0.000000,1
$SNSRAWYAW,100,0.160000,0,0.160000,0,0.160000,0,0.160000,0,0.160000,0
$SNSPULS,120,114,0,114,0,114,0,113,0
$PKTHEAD,2,5156093,3,2.481971,48.829160,43.00,21.55,79.88,1,10,1698745081498
$PKTHEAD,1,5156194,207
$VECINFO,1,0.00,0.00,0.00,0.00
$SNSYAW,100,0.000000,0,0.000000,1,0.000000,1,0.000000,1,0.000000,1
$SNSRAWYAW,100,0.000000,0,0.000000,0,0.000000,0,0.160000,0,0.160000,0
$SNSPULS,80,76,0,75,0,75,0,76,0
$PKTHEAD,1,5156295,208
$VECINFO,1,0.00,0.00,0.00,0.00
$SNSYAW,100,0.000000,0,0.000000,1,0.000000,1,0.000000,1,0.000000,1
$SNSRAWYAW,100,0.000000,0,0.000000,0,0.000000,0,0.000000,0,0.000000,0
$SNSPULS,120,113,0,114,0,113,0,113,0
$PKTHEAD,2,5156296,3,2.482029,48.829167,43.00,21.58,79.87,1,10,1698745081702
$PKTHEAD,1,5156391,209
$VECINFO,1,0.00,0.00,0.00,0.00
$SNSYAW,100,0.100000,0,0.000000,1,0.000000,1,0.000000,1,0.000000,1
$SNSRAWYAW,100,-0.080000,0,-0.080000,0,0.000000,0,0.000000,0,0.000000,0
$SNSPULS,80,77,0,76,0,76,0,76,0
$PKTHEAD,1,5156493,210
$VECINFO,1,0.00,0.00,0.00,0.00
$SNSYAW,100,0.100000,0,0.000000,1,0.000000,1,0.000000,1,0.000000,1
$SNSRAWYAW,100,0.000000,0,0.000000,0,0.000000,0,0.000000,0,0.000000,0
$SNSPULS,120,114,0,115,0,114,0,113,0
$PKTHEAD,2,5156494,3,2.482087,48.829174,43.00,21.64,79.87,1,10,1698745081900
$PKTHEAD,0,5156589,213
$GNGGA,093802.000,4849.7499,N,00228.9214,E,2,24,0.58,43.7,M,47.3,M,0.0,0*50
$GPGSA,A,3,03,07,11,30,20,04,09,06,16,26,,,1.12,0.58,0.95,1*11
$GLGSA,A,3,65,75,81,83,82,67,76,66,,,,,1.12,0.58,0.95,2*0A
$GAGSA,A,3,27,04,11,36,12,10,,,,,,,1.12,0.58,0.95,3*09
$GPGSV,3,1,12,09,72,059,39.8,06,59,224,38.6,11,49,291,45.2,07,43,161,40.4,1*66
$GPGSV,3,2,12,04,37,061,38.5,49,33,176,40.0,20,30,299,44.1,30,18,186,29.2,1*68
$GPGSV,3,3,12,16,08,061,35.0,03,08,111,13.3,26,07,035,29.4,29,03,345,10.2,1*61
$GLGSV,3,1,9,66,65,028,41.9,82,49,281,45.7,67,43,284,46.8,81,32,215,44.4,1*44
$GLGSV,3,2,9,76,29,108,35.4,75,27,042,46.6,83,25,330,33.5,65,19,073,39.1,1*49
$GLGSV,3,3,9,77,05,149,,1*78
$GAGSV,3,1,9,04,66,249,39.7,11,59,270,40.0,10,56,213,42.5,19,50,061,,7*56
$GAGSV,3,2,9,12,38,184,40.2,36,22,320,38.6,09,15,246,,21,11,090,,7*46
$GAGSV,3,3,9,27,11,040,28.6,7*69
$GNRMC,093802.000,A,4849.7499,N,00228.9214,E,42.125,79.73,311023,,,D,V*33
$GNVTG,79.73,T,,M,42.125,N,78.057,K,D*11
$GNDTM,W84,,0.0,N,0.0,E,0.0,W84*71
$GNACCURACY,1.8,0.5,0.3,5.5*1B
$GNGST,093802.000,2.9,2.7,2.3,136.8,2.5,2.5,5.5*7A
$GPEPE,03.58,05.53*4A
$GPGBS,093802.000,2.54,2.51,5.53,,,,,,*47
$PKTHEAD,1,5156595,211
$VECINFO,1,0.00,0.00,0.00,0.00
$SNSYAW,100,0.100000,0,0.000000,1,0.000000,1,0.000000,1,0.000000,1
$SNSRAWYAW,100,0.000000,0,0.000000,0,0.000000,0,0.000000,0,0.000000,0
$SNSPULS,80,76,0,76,0,76,0,76,0
$PKTHEAD,1,5156696,212
$VECINFO,1,0.00,0.00,0.00,0.00
$SNSYAW,100,0.000000,0,0.000000,1,0.000000,1,0.000000,1,0.000000,1
$SNSRAWYAW,100,0.000000,0,0.000000,0,0.000000,0,0.000000,0,0.000000,0
$SNSPULS,120,115,0,114,0,114,0,115,0
$PKTHEAD,2,5156698,3,2.482142,48.829180,43.00,21.69,79.82,1,10,1698745082107
$PKTHEAD,1,5156792,213
$VECINFO,1,0.00,0.00,0.00,0.00
$SNSYAW,100,0.000000,0,0.000000,1,0.000000,1,0.000000,1,0.000000,1
$SNSRAWYAW,100,-0.080000,0,-0.080000,0,-0.240000,0,-0.080000,0,0.000000,0
$SNSPULS,80,76,0,77,0,76,0,76,0
$PKTHEAD,1,5156895,214
$VECINFO,1,0.00,0.00,0.00,0.00
$SNSYAW,100,0.100000,0,0.000000,1,0.000000,1,0.000000,1,0.000000,1
$SNSRAWYAW,100,0.000000,0,0.000000,0,0.000000,0,0.000000,0,0.160000,0
$SNSPULS,120,115,0,115,0,114,0,114,0
$PKTHEAD,2,5156896,3,2.482201,48.829187,43.00,21.74,79.79,1,10,1698745082306
$PKTHEAD,1,5156995,215
$VECINFO,1,0.00,0.00,0.00,0.00
$SNSYAW,100,0.000000,0,0.000000,1,0.000000,1,0.000000,1,0.000000,1
$SNSRAWYAW,100,0.160000,0,0.000000,0,0.000000,0,0.000000,0,0.000000,0
$SNSPULS,80,77,0,76,0,77,0,77,0
$PKTHEAD,1,5157091,216
$VECINFO,1,0.00,0.00,0.00,0.00
$SNSYAW,100,0.100000,0,0.000000,1,0.000000,1,0.000000,1,0.000000,1
$SNSRAWYAW,100,0.000000,0,0.000000,0,0.000000,0,0.000000,0,0.000000,0
$SNSPULS,120,115,0,115,0,114,0,114,0
$PKTHEAD,2,5157093,3,2.482260,48.829194,43.00,21.80,79.78,1,10,1698745082502
$PKTHEAD,1,5157193,217
$VECINFO,1,0.00,0.00,0.00,0.00
$SNSYAW,100,0.100000,0,0.000000,1,0.000000,1,0.000000,1,0.000000,1
$SNSRAWYAW,100,0.000000,0,0.000000,0,0.000000,0,0.000000,0,0.000000,0
$SNSPULS,80,76,0,77,0,77,0,77,0
$PKTHEAD,1,5157294,218
$VECINFO,1,0.00,0.00,0.00,0.00
$SNSYAW,100,0.000000,0,0.000000,1,0.000000,1,0.000000,1,0.000000,1
$SNSRAWYAW,100,0.000000,0,0.000000,0,0.000000,0,0.000000,0,0.000000,0
$SNSPULS,120,115,0,115,0,115,0,115,0
$PKTHEAD,2,5157295,3,2.482319,48.829201,43.00,21.88,79.78,1,10,1698745082705
$PKTHEAD,1,5157395,219
$VECINFO,1,0.00,0.00,0.00,0.00
$SNSYAW,100,0.400000,0,0.000000,1,0.000000,1,0.000000,1,0.000000,1
$SNSRAWYAW,100,0.000000,0,0.000000,0,0.000000,0,0.000000,0,0.000000,0
$SNSPULS,80,77,0,77,0,76,0,76,0
$PKTHEAD,1,5157492,220
$VECINFO,1,0.00,0.00,0.00,0.00
$SNSYAW,100,0.400000,0,0.000000,1,0.000000,1,0.000000,1,0.000000,1
$SNSRAWYAW,100,0.160000,0,0.160000,0,0.240000,0,0.240000,0,0.240000,0
$SNSPULS,120,116,0,116,0,115,0,116,0
$PKTHEAD,2,5157493,3,2.482378,48.829208,43.00,21.92,79.76,1,10,1698745082903
$PKTHEAD,0,5157572,214
$GNGGA,093803.000,4849.7514,N,00228.9394,E,2,23,0.63,42.8,M,47.3,M,0.0,0*5D
$GPGSA,A,3,03,07,11,20,04,09,06,16,26,,,,1.21,0.63,1.04,1*13
$GLGSA,A,3,65,75,81,83,82,67,76,66,,,,,1.21,0.63,1.04,2*0B
$GAGSA,A,3,27,04,11,36,12,10,,,,,,,1.21,0.63,1.04,3*08
$GPGSV,3,1,12,09,72,059,40.5,06,59,224,38.5,11,49,291,45.4,07,43,161,40.5,1*61
$GPGSV,3,2,12,04,37,061,38.8,49,33,176,40.0,20,30,299,44.1,30,18,186,29.0,1*67
$GPGSV,3,3,12,16,08,061,35.9,03,08,111,14.3,26,07,035,24.2,29,03,345,10.2,1*64
$GLGSV,3,1,9,66,65,028,41.9,82,49,281,45.8,67,43,284,46.9,81,32,215,40.9,1*43
$GLGSV,3,2,9,76,29,108,35.5,75,27,042,46.6,83,25,330,33.4,65,19,073,38.7,1*4E
$GLGSV,3,3,9,77,05,149,,1*78
$GAGSV,3,1,9,04,66,249,39.7,11,59,270,39.9,10,56,213,42.6,19,50,061,,7*52
$GAGSV,3,2,9,12,38,184,40.1,36,22,320,38.5,09,15,246,,21,11,090,,7*46
$GAGSV,3,3,9,27,11,040,28.5,7*6A
$GNRMC,093803.000,A,4849.7514,N,00228.9394,E,42.551,79.78,311023,,,D,V*33
$GNVTG,79.78,T,,M,42.551,N,78.847,K,D*14
$GNDTM,W84,,0.0,N,0.0,E,0.0,W84*71
$GNACCURACY,1.9,0.6,0.3,5.6*1A
$GNGST,093803.000,2.9,3.1,2.4,135.4,2.8,2.8,5.6*77
$GPEPE,03.94,05.57*4E
$GPGBS,093803.000,2.79,2.78,5.57,,,,,,*46
$PKTHEAD,1,5157594,221
$VECINFO,1,0.00,0.00,0.00,0.00
$SNSYAW,100,0.000000,0,0.000000,1,0.000000,1,0.000000,1,0.000000,1
$SNSRAWYAW,100,0.400000,0,0.160000,0,0.000000,0,0.000000,0,0.000000,0
$SNSPULS,80,78,0,77,0,77,0,76,0
$PKTHEAD,1,5157695,222
$VECINFO,1,0.00,0.00,0.00,0.00
$SNSYAW,100,0.000000,0,0.000000,1,0.000000,1,0.000000,1,0.000000,1
$SNSRAWYAW,100,0.000000,0,-0.080000,0,-0.240000,0,-0.240000,0,-0.080000,0
$SNSPULS,120,116,0,117,0,116,0,116,0
$PKTHEAD,2,5157696,3,2.482438,48.829214,42.00,21.97,79.74,1,10,1698745083123
$PKTHEAD,1,5157791,223
$VECINFO,1,0.00,0.00,0.00,0.00
$SNSYAW,100,0.000000,0,0.000000,1,0.000000,1,0.000000,1,0.000000,1
$SNSRAWYAW,100,0.000000,0,-0.080000,0,-0.080000,0,0.000000,0,0.000000,0
$SNSPULS,80,77,0,77,0,77,0,77,0
$PKTHEAD,1,5157892,224
$VECINFO,1,0.00,0.00,0.00,0.00
$SNSYAW,100,0.000000,0,0.000000,1,0.000000,1,0.000000,1,0.000000,1
$SNSRAWYAW,100,0.000000,0,0.000000,0,0.000000,0,0.000000,0,0.000000,0
$SNSPULS,120,117,0,117,0,116,0,117,0
$PKTHEAD,2,5157893,3,2.482497,48.829221,42.00,22.05,79.73,1,10,1698745083320
$PKTHEAD,1,5157996,225
$VECINFO,1,0.00,0.00,0.00,0.00
$SNSYAW,100,0.000000,0,0.000000,1,0.000000,1,0.000000,1,0.000000,1
$SNSRAWYAW,100,0.000000,0,0.000000,0,0.000000,0,0.000000,0,0.000000,0
$SNSPULS,80,77,0,77,0,78,0,77,0
$PKTHEAD,1,5158095,226
$VECINFO,1,0.00,0.00,0.00,0.00
$SNSYAW,100,0.000000,0,0.000000,1,0.000000,1,0.000000,1,0.000000,1
$SNSRAWYAW,100,0.000000,0,-0.080000,0,-0.080000,0,0.000000,0,0.000000,0
$SNSPULS,120,117,0,117,0,116,0,117,0
$PKTHEAD,2,5158096,3,2.482557,48.829228,42.00,22.12,79.73,1,10,1698745083523
$PKTHEAD,1,5158192,227
$VECINFO,1,0.00,0.00,0.00,0.00
$SNSYAW,100,0.100000,0,0.000000,1,0.000000,1,0.000000,1,0.000000,1
$SNSRAWYAW,100,0.000000,0,0.000000,0,0.000000,0,0.000000,0,0.000000,0
$SNSPULS,80,78,0,78,0,78,0,77,0
$PKTHEAD,1,5158293,228
$VECINFO,1,0.00,0.00,0.00,0.00
$SNSYAW,100,0.100000,0,0.000000,1,0.000000,1,0.000000,1,0.000000,1
$SNSRAWYAW,100,0.000000,0,0.000000,0,0.000000,0,0.000000,0,0.000000,0
$SNSPULS,120,117,0,117,0,117,0,117,0
$PKTHEAD,2,5158295,3,2.482617,48.829235,42.00,22.18,79.72,1,10,1698745083721
$PKTHEAD,1,5158395,229
$VECINFO,1,0.00,0.00,0.00,0.00
$SNSYAW,100,0.100000,0,0.000000,1,0.000000,1,0.000000,1,0.000000,1
$SNSRAWYAW,100,0.000000,0,0.000000,0,0.000000,0,0.000000,0,0.000000,0
$SNSPULS,80,79,0,79,0,78,0,78,0
$PKTHEAD,1,5158491,230
$VECINFO,1,0.00,0.00,0.00,0.00
$SNSYAW,100,0.400000,0,0.000000,1,0.000000,1,0.000000,1,0.000000,1
$SNSRAWYAW,100,0.000000,0,0.000000,0,0.160000,0,0.160000,0,0.240000,0
$SNSPULS,120,117,0,117,0,117,0,117,0
$PKTHEAD,2,5158492,3,2.482677,48.829242,42.00,22.26,79.72,1,10,1698745083919
$PKTHEAD,1,5158598,231
$VECINFO,1,0.00,0.00,0.00,0.00
$SNSYAW,100,0.100000,0,0.000000,1,0.000000,1,0.000000,1,0.000000,1
$SNSRAWYAW,100,0.160000,0,0.160000,0,0.160000,0,0.160000,0,0.000000,0
$SNSPULS,80,79,0,78,0,78,0,78,0
$PKTHEAD,0,5158604,215
$GNGGA,093804.000,4849.7531,N,00228.9576,E,2,24,0.58,42.3,M,47.3,M,0.0,0*53
$GPGSA,A,3,03,07,11,30,20,04,09,06,16,26,,,1.12,0.58,0.95,1*11
$GLGSA,A,3,65,75,81,83,82,67,76,66,,,,,1.12,0.58,0.95,2*0A
$GAGSA,A,3,27,04,11,36,12,10,,,,,,,1.12,0.58,0.95,3*09
$GPGSV,3,1,12,09,72,059,39.9,06,59,224,38.4,11,49,291,45.2,07,43,161,41.9,1*69
$GPGSV,3,2,12,04,37,061,33.9,49,33,176,40.0,20,30,299,44.1,30,18,186,29.9,1*64
$GPGSV,3,3,12,16,08,061,34.9,03,08,111,14.3,26,07,035,24.6,29,03,345,10.2,1*61
$GLGSV,3,1,9,66,65,028,41.8,82,49,281,45.8,67,43,284,47.0,81,32,215,40.5,1*46
$GLGSV,3,2,9,76,29,108,31.7,75,27,042,41.7,83,25,330,33.5,65,19,073,38.5,1*4D
$GLGSV,3,3,9,77,05,149,,1*78
$GAGSV,3,1,9,04,66,249,39.6,11,59,270,40.1,10,56,213,42.7,19,50,061,,7*54
$GAGSV,3,2,9,12,38,184,40.1,36,22,320,38.4,09,15,246,,21,11,090,,7*47
$GAGSV,3,3,9,27,11,040,23.9,7*6D
$GNRMC,093804.000,A,4849.7531,N,00228.9576,E,43.844,79.37,311023,,,D,V*3A
$GNVTG,79.37,T,,M,43.844,N,81.242,K,D*1E
$GNDTM,W84,,0.0,N,0.0,E,0.0,W84*71
$GNACCURACY,1.7,0.6,0.4,5.5*10
$GNGST,093804.000,2.9,2.6,2.0,127.1,2.3,2.4,5.5*70
$GPEPE,03.29,05.48*46
$GPGBS,093804.000,2.25,2.40,5.48,,,,,,*4D
$PKTHEAD,1,5158694,232
$VECINFO,1,0.00,0.00,0.00,0.00
$SNSYAW,100,0.100000,0,0.000000,1,0.000000,1,0.000000,1,0.000000,1
$SNSRAWYAW,100,0.000000,0,0.000000,0,0.000000,0,0.000000,0,0.000000,0
$SNSPULS,120,117,0,118,0,117,0,118,0
$PKTHEAD,2,5158695,3,2.482733,48.829246,42.00,22.33,79.69,1,10,1698745084090
$PKTHEAD,1,5158791,233
$VECINFO,1,0.00,0.00,0.00,0.00
$SNSYAW,100,0.100000,0,0.000000,1,0.000000,1,0.000000,1,0.000000,1
$SNSRAWYAW,100,0.000000,0,0.000000,0,0.000000,0,0.160000,0,0.160000,0
$SNSPULS,80,79,0,79,0,78,0,78,0
$PKTHEAD,1,5158893,234
$VECINFO,1,0.00,0.00,0.00,0.00
$SNSYAW,100,0.100000,0,0.000000,1,0.000000,1,0.000000,1,0.000000,1
$SNSRAWYAW,100,0.000000,0,0.000000,0,0.000000,0,-0.080000,0,0.000000,0
$SNSPULS,120,118,0,118,0,118,0,118,0
$PKTHEAD,2,5158894,3,2.482794,48.829254,42.00,22.38,79.66,1,10,1698745084289
$PKTHEAD,1,5158994,235
$VECINFO,1,0.00,0.00,0.00,0.00
$SNSYAW,100,0.100000,0,0.000000,1,0.000000,1,0.000000,1,0.000000,1
$SNSRAWYAW,100,0.000000,0,0.000000,0,0.000000,0,0.000000,0,0.000000,0
$SNSPULS,80,79,0,79,0,78,0,78,0
$PKTHEAD,1,5159095,236
$VECINFO,1,0.00,0.00,0.00,0.00
$SNSYAW,100,0.100000,0,0.000000,1,0.000000,1,0.000000,1,0.000000,1
$SNSRAWYAW,100,0.000000,0,0.000000,0,0.000000,0,0.000000,0,0.000000,0
$SNSPULS,120,118,0,118,0,118,0,118,0
$PKTHEAD,2,5159097,3,2.482854,48.829261,42.00,22.43,79.64,1,10,1698745084491
$PKTHEAD,1,5159192,237
$VECINFO,1,0.00,0.00,0.00,0.00
$SNSYAW,100,0.000000,0,0.000000,1,0.000000,1,0.000000,1,0.000000,1
$SNSRAWYAW,100,0.000000,0,0.000000,0,0.000000,0,0.000000,0,0.000000,0
$SNSPULS,80,79,0,79,0,79,0,78,0
$PKTHEAD,1,5159293,238
$VECINFO,1,0.00,0.00,0.00,0.00
$SNSYAW,100,0.000000,0,0.000000,1,0.000000,1,0.000000,1,0.000000,1
$SNSRAWYAW,100,0.000000,0,0.000000,0,0.000000,0,0.000000,0,0.000000,0
$SNSPULS,120,118,0,118,0,118,0,118,0
$PKTHEAD,2,5159294,3,2.482914,48.829268,42.00,22.48,79.64,1,10,1698745084689
$PKTHEAD,1,5159395,239
$VECINFO,1,0.00,0.00,0.00,0.00
$SNSYAW,100,0.100000,0,0.000000,1,0.000000,1,0.000000,1,0.000000,1
$SNSRAWYAW,100,0.000000,0,0.000000,0,0.000000,0,0.000000,0,0.000000,0
$SNSPULS,80,79,0,79,0,78,0,79,0
$PKTHEAD,1,5159491,240
$VECINFO,1,0.00,0.00,0.00,0.00
$SNSYAW,100,0.000000,0,0.000000,1,0.000000,1,0.000000,1,0.000000,1
$SNSRAWYAW,100,0.000000,0,0.000000,0,0.000000,0,0.000000,0,0.000000,0
$SNSPULS,120,118,0,118,0,118,0,118,0
$PKTHEAD,2,5159492,3,2.482975,48.829275,42.00,22.51,79.64,1,10,1698745084887
$PKTHEAD,1,5159593,241
$VECINFO,1,0.00,0.00,0.00,0.00
$SNSYAW,100,0.000000,0,0.000000,1,0.000000,1,0.000000,1,0.000000,1
$SNSRAWYAW,100,0.000000,0,0.000000,0,0.000000,0,0.000000,0,0.000000,0
$SNSPULS,80,79,0,79,0,79,0,79,0
$PKTHEAD,0,5159599,216
$GNGGA,093805.000,4849.7555,N,00228.9755,E,2,22,0.66,42.6,M,47.3,M,0.0,0*5D
$GPGSA,A,3,07,11,20,04,09,06,16,26,,,,,1.30,0.66,1.12,1*12
$GLGSA,A,3,65,75,81,83,82,67,76,66,,,,,1.30,0.66,1.12,2*09
$GAGSA,A,3,27,04,11,36,12,10,,,,,,,1.30,0.66,1.12,3*0A
$GPGSV,3,1,12,09,72,059,40.0,06,59,224,38.6,11,49,291,45.4,07,43,161,43.2,1*63
$GPGSV,3,2,12,04,37,061,40.3,49,33,176,41.0,20,30,299,44.2,30,18,186,30.1,1*68
$GPGSV,3,3,12,16,08,061,35.1,03,08,111,14.3,26,07,035,26.2,29,03,345,13.0,1*6F
$GLGSV,3,1,9,66,65,028,42.0,82,49,281,45.9,67,43,284,46.8,81,32,215,43.8,1*4B
$GLGSV,3,2,9,76,29,108,34.6,75,27,042,46.0,83,25,330,33.8,65,19,073,38.9,1*48
$GLGSV,3,3,9,77,05,149,,1*78
$GAGSV,3,1,9,04,66,249,39.6,11,59,270,40.2,10,56,213,42.8,19,50,061,,7*58
$GAGSV,3,2,9,12,38,184,40.2,36,22,320,38.6,09,15,246,,21,11,090,,7*46
$GAGSV,3,3,9,27,11,040,29.0,7*6E
$GNRMC,093805.000,A,4849.7555,N,00228.9755,E,43.855,80.11,311023,,,D,V*38
$GNVTG,80.11,T,,M,43.855,N,81.263,K,D*1F
$GNDTM,W84,,0.0,N,0.0,E,0.0,W84*71
$GNACCURACY,1.7,0.4,0.5,5.6*10
$GNGST,093805.000,2.8,2.5,2.2,151.7,2.4,2.3,5.6*75
$GPEPE,03.32,05.58*4D
$GPGBS,093805.000,2.42,2.27,5.58,,,,,,*4D
$PKTHEAD,1,5159694,242
$VECINFO,1,0.00,0.00,0.00,0.00
$SNSYAW,100,0.000000,0,0.000000,1,0.000000,1,0.000000,1,0.000000,1
$SNSRAWYAW,100,0.000000,0,0.000000,0,0.000000,0,0.000000,0,0.000000,0
$SNSPULS,120,119,0,119,0,118,0,118,0
$PKTHEAD,2,5159695,3,2.483029,48.829279,42.00,22.54,79.67,1,10,1698745085095
$PKTHEAD,1,5159795,243
$VECINFO,1,0.00,0.00,0.00,0.00
$SNSYAW,100,0.000000,0,0.000000,1,0.000000,1,0.000000,1,0.000000,1
$SNSRAWYAW,100,0.000000,0,0.000000,0,0.000000,0,0.000000,0,0.000000,0
$SNSPULS,80,79,0,79,0,79,0,79,0
$PKTHEAD,1,5159891,244
$VECINFO,1,0.00,0.00,0.00,0.00
$SNSYAW,100,0.000000,0,0.000000,1,0.000000,1,0.000000,1,0.000000,1
$SNSRAWYAW,100,0.000000,0,0.000000,0,0.000000,0,0.000000,0,0.000000,0
$SNSPULS,120,118,0,118,0,118,0,118,0
$PKTHEAD,2,5159892,3,2.483090,48.829286,42.00,22.57,79.71,1,10,1698745085292
$PKTHEAD,1,5159993,245
$VECINFO,1,0.00,0.00,0.00,0.00
$SNSYAW,100,0.000000,0,0.000000,1,0.000000,1,0.000000,1,0.000000,1
$SNSRAWYAW,100,0.000000,0,0.000000,0,0.000000,0,0.160000,0,0.000000,0
$SNSPULS,80,79,0,79,0,79,0,79,0
$PKTHEAD,1,5160094,246
$VECINFO,1,0.00,0.00,0.00,0.00
$SNSYAW,100,0.100000,0,0.000000,1,0.000000,1,0.000000,1,0.000000,1
$SNSRAWYAW,100,0.000000,0,0.000000,0,0.000000,0,0.000000,0,0.000000,0
$SNSPULS,120,119,0,119,0,118,0,118,0
$PKTHEAD,2,5160095,3,2.483151,48.829294,42.00,22.59,79.73,1,10,1698745085495
$PKTHEAD,1,5160195,247
$VECINFO,1,0.00,0.00,0.00,0.00
$SNSYAW,100,0.000000,0,0.000000,1,0.000000,1,0.000000,1,0.000000,1
$SNSRAWYAW,100,0.000000,0,0.000000,0,0.160000,0,0.160000,0,0.000000,0
$SNSPULS,80,79,0,79,0,79,0,79,0
$PKTHEAD,1,5160291,248
$VECINFO,1,0.00,0.00,0.00,0.00
$SNSYAW,100,0.000000,0,0.000000,1,0.000000,1,0.000000,1,0.000000,1
$SNSRAWYAW,100,0.000000,0,0.000000,0,0.000000,0,0.000000,0,0.000000,0
$SNSPULS,120,119,0,119,0,119,0,119,0
$PKTHEAD,2,5160293,3,2.483212,48.829301,42.00,22.62,79.73,1,10,1698745085692
$PKTHEAD,1,5160393,249
$VECINFO,1,0.00,0.00,0.00,0.00
$SNSYAW,100,0.000000,0,0.000000,1,0.000000,1,0.000000,1,0.000000,1
$SNSRAWYAW,100,0.000000,0,0.000000,0,0.000000,0,0.000000,0,0.000000,0
$SNSPULS,80,79,0,79,0,79,0,79,0
$PKTHEAD,1,5160494,250
$VECINFO,1,0.00,0.00,0.00,0.00
$SNSYAW,100,0.500000,0,0.000000,1,0.000000,1,0.000000,1,0.000000,1
$SNSRAWYAW,100,0.000000,0,0.000000,0,0.000000,0,0.240000,0,0.240000,0
$SNSPULS,120,119,0,119,0,118,0,118,0
$PKTHEAD,2,5160495,3,2.483272,48.829308,42.00,22.64,79.74,1,10,1698745085895
$PKTHEAD,0,5160573,217
$GNGGA,093806.000,4849.7576,N,00228.9940,E,2,23,0.60,42.0,M,47.3,M,0.0,0*54
$GPGSA,A,3,07,11,30,20,04,09,06,16,26,,,,1.16,0.60,1.00,1*10
$GLGSA,A,3,65,75,81,83,82,67,76,66,,,,,1.16,0.60,1.00,2*08
$GAGSA,A,3,27,04,11,36,12,10,,,,,,,1.16,0.60,1.00,3*0B
$GPGSV,3,1,12,09,72,059,40.0,06,59,224,39.2,11,49,291,45.4,07,43,161,42.2,1*67
$GPGSV,3,2,12,04,37,061,39.2,49,33,176,41.0,20,30,299,44.3,30,18,186,29.0,1*6F
$GPGSV,3,3,12,16,08,061,34.8,03,08,111,13.0,26,07,035,24.8,29,03,345,13.0,1*6B
$GLGSV,3,1,9,66,65,028,41.9,82,49,281,45.4,67,43,284,46.5,81,32,215,44.7,1*49
$GLGSV,3,2,9,76,29,108,35.0,75,27,042,46.0,83,25,330,33.6,65,19,073,38.9,1*41
$GLGSV,3,3,9,77,05,149,,1*78
$GAGSV,3,1,9,04,66,249,39.8,11,59,270,40.2,10,56,213,42.9,19,50,061,,7*57
$GAGSV,3,2,9,12,38,184,40.2,36,22,320,39.2,09,15,246,,21,11,090,,7*43
$GAGSV,3,3,9,27,11,040,28.5,7*6A
$GNRMC,093806.000,A,4849.7576,N,00228.9940,E,43.905,79.99,311023,,,D,V*32
$GNVTG,79.99,T,,M,43.905,N,81.356,K,D*1A
$GNDTM,W84,,0.0,N,0.0,E,0.0,W84*71
$GNACCURACY,1.7,0.4,0.6,5.7*12
$GNGST,093806.000,2.8,2.5,2.2,152.0,2.5,2.3,5.7*72
$GPEPE,03.36,05.67*45
$GPGBS,093806.000,2.45,2.29,5.67,,,,,,*4B
$PKTHEAD,1,5160595,251
$VECINFO,1,0.00,0.00,0.00,0.00
$SNSYAW,100,0.100000,0,0.000000,1,0.000000,1,0.000000,1,0.000000,1
$SNSRAWYAW,100,0.240000,0,0.400000,0,0.240000,0,0.240000,0,0.160000,0
$SNSPULS,80,79,0,79,0,79,0,79,0
$PKTHEAD,1,5160692,252
$VECINFO,1,0.00,0.00,0.00,0.00
$SNSYAW,100,0.200000,0,0.000000,1,0.000000,1,0.000000,1,0.000000,1
$SNSRAWYAW,100,0.160000,0,0.000000,0,0.000000,0,0.000000,0,0.000000,0
$SNSPULS,120,119,0,119,0,118,0,118,0
$PKTHEAD,2,5160693,3,2.483345,48.829312,42.00,22.64,79.77,1,10,1698745086119
$PKTHEAD,1,5160793,253
$VECINFO,1,0.00,0.00,0.00,0.00
$SNSYAW,100,0.400000,0,0.000000,1,0.000000,1,0.000000,1,0.000000,1
$SNSRAWYAW,100,0.000000,0,0.160000,0,0.160000,0,0.000000,0,0.000000,0
$SNSPULS,80,79,0,79,0,79,0,79,0
$PKTHEAD,1,5160895,254
$VECINFO,1,0.00,0.00,0.00,0.00
$SNSYAW,100,0.500000,0,0.000000,1,0.000000,1,0.000000,1,0.000000,1
$SNSRAWYAW,100,0.160000,0,0.240000,0,0.400000,0,0.240000,0,0.240000,0
$SNSPULS,120,119,0,119,0,119,0,119,0
$PKTHEAD,2,5160897,3,2.483406,48.829319,42.00,22.66,79.76,1,10,1698745086322
$PKTHEAD,1,5160992,255
$VECINFO,1,0.00,0.00,0.00,0.00
$SNSYAW,100,0.100000,0,0.000000,1,0.000000,1,0.000000,1,0.000000,1
$SNSRAWYAW,100,0.400000,0,0.400000,0,0.160000,0,0.000000,0,0.000000,0
$SNSPULS,80,79,0,79,0,79,0,79,0
$PKTHEAD,1,5161093,0
$VECINFO,1,0.00,0.00,0.00,0.00
$SNSYAW,100,0.200000,0,0.000000,1,0.000000,1,0.000000,1,0.000000,1
$SNSRAWYAW,100,0.000000,0,0.000000,0,0.000000,0,0.000000,0,0.160000,0
$SNSPULS,120,118,0,118,0,118,0,118,0
$PKTHEAD,2,5161095,3,2.483467,48.829327,42.00,22.66,79.77,1,10,1698745086520
$PKTHEAD,1,5161195,1
$VECINFO,1,0.00,0.00,0.00,0.00
$SNSYAW,100,0.100000,0,0.000000,1,0.000000,1,0.000000,1,0.000000,1
$SNSRAWYAW,100,0.240000,0,0.160000,0,0.160000,0,0.160000,0,0.160000,0
$SNSPULS,80,79,0,80,0,79,0,79,0
$PKTHEAD,1,5161296,2
$VECINFO,1,0.00,0.00,0.00,0.00
$SNSYAW,100,0.400000,0,0.000000,1,0.000000,1,0.000000,1,0.000000,1
$SNSRAWYAW,100,0.160000,0,0.000000,0,0.000000,0,0.000000,0,0.160000,0
$SNSPULS,120,119,0,118,0,118,0,119,0
$PKTHEAD,2,5161297,3,2.483528,48.829334,42.00,22.65,79.78,1,10,1698745086723
$PKTHEAD,1,5161392,3
$VECINFO,1,0.00,0.00,0.00,0.00
$SNSYAW,100,0.100000,0,0.000000,1,0.000000,1,0.000000,1,0.000000,1
$SNSRAWYAW,100,0.160000,0,0.240000,0,0.160000,0,0.000000,0,0.000000,0
$SNSPULS,80,79,0,79,0,79,0,79,0
$PKTHEAD,1,5161493,4
$VECINFO,1,0.00,0.00,0.00,0.00
$SNSYAW,100,0.400000,0,0.000000,1,0.000000,1,0.000000,1,0.000000,1
$SNSRAWYAW,100,0.000000,0,0.000000,0,0.000000,0,0.000000,0,0.160000,0
$SNSPULS,120,119,0,119,0,118,0,118,0
$PKTHEAD,2,5161494,3,2.483588,48.829341,42.00,22.65,79.78,1,10,1698745086920
$PKTHEAD,0,5161561,218
$GNGGA,093807.000,4849.7597,N,00229.0124,E,2,22,0.60,41.3,M,47.3,M,0.0,0*59
$GPGSA,A,3,07,11,30,20,04,09,06,16,,,,,1.20,0.60,1.04,1*15
$GLGSA,A,3,65,75,81,83,82,67,76,66,,,,,1.20,0.60,1.04,2*09
$GAGSA,A,3,27,04,11,36,12,10,,,,,,,1.20,0.60,1.04,3*0A
$GPGSV,3,1,12,09,72,059,40.0,06,59,224,39.2,11,49,291,45.3,07,43,161,43.0,1*63
$GPGSV,3,2,12,04,37,061,39.7,49,33,176,40.0,20,30,299,44.3,30,18,186,29.6,1*6D
$GPGSV,3,3,12,16,08,061,34.8,03,08,111,13.0,26,07,035,28.6,29,03,345,12.0,1*68
$GLGSV,3,1,9,66,65,028,42.1,82,49,281,45.4,67,43,284,46.5,81,32,215,44.3,1*46
$GLGSV,3,2,9,76,29,108,32.3,75,27,042,46.7,83,25,330,33.5,65,19,073,38.8,1*40
$GLGSV,3,3,9,77,05,149,,1*78
$GAGSV,3,1,9,04,66,249,39.8,11,59,270,40.2,10,56,213,42.9,19,50,061,,7*57
$GAGSV,3,2,9,12,38,184,36.2,36,22,320,39.2,09,15,246,,21,11,090,,7*42
$GAGSV,3,3,9,27,11,040,27.8,7*68
$GNRMC,093807.000,A,4849.7597,N,00229.0124,E,44.065,79.98,311023,,,D,V*37
$GNVTG,79.98,T,,M,44.065,N,81.652,K,D*12
$GNDTM,W84,,0.0,N,0.0,E,0.0,W84*71
$GNACCURACY,1.7,0.4,0.6,5.0*15
$GNGST,093807.000,2.8,2.6,2.2,149.8,2.5,2.3,5.0*75
$GPEPE,03.41,04.97*4B
$GPGBS,093807.000,2.49,2.33,4.97,,,,,,*43
$PKTHEAD,1,5161595,5
$VECINFO,1,0.00,0.00,0.00,0.00
$SNSYAW,100,0.200000,0,0.000000,1,0.000000,1,0.000000,1,0.000000,1
$SNSRAWYAW,100,0.240000,0,0.240000,0,0.160000,0,0.160000,0,0.240000,0
$SNSPULS,80,79,0,79,0,79,0,79,0
$PKTHEAD,1,5161691,6
$VECINFO,1,0.00,0.00,0.00,0.00
$SNSYAW,100,0.200000,0,0.000000,1,0.000000,1,0.000000,1,0.000000,1
$SNSRAWYAW,100,0.240000,0,0.160000,0,0.000000,0,0.000000,0,0.160000,0
$SNSPULS,120,118,0,119,0,119,0,118,0
$PKTHEAD,2,5161693,3,2.483657,48.829345,41.00,22.66,79.88,1,10,1698745087130
$PKTHEAD,1,5161792,7
$VECINFO,1,0.00,0.00,0.00,0.00
$SNSYAW,100,0.200000,0,0.000000,1,0.000000,1,0.000000,1,0.000000,1
$SNSRAWYAW,100,0.160000,0,0.160000,0,0.000000,0,0.160000,0,0.160000,0
$SNSPULS,80,79,0,78,0,78,0,79,0
$PKTHEAD,1,5161894,8
$VECINFO,1,0.00,0.00,0.00,0.00
$SNSYAW,100,0.100000,0,0.000000,1,0.000000,1,0.000000,1,0.000000,1
$SNSRAWYAW,100,0.160000,0,0.160000,0,0.160000,0,0.160000,0,0.160000,0
$SNSPULS,120,118,0,119,0,118,0,118,0
$PKTHEAD,2,5161896,3,2.483718,48.829352,41.00,22.62,79.92,1,10,1698745087333
$PKTHEAD,1,5161995,9
$VECINFO,1,0.00,0.00,0.00,0.00
$SNSYAW,100,0.000000,0,0.000000,1,0.000000,1,0.000000,1,0.000000,1
$SNSRAWYAW,100,0.160000,0,0.000000,0,0.000000,0,0.000000,0,0.000000,0
$SNSPULS,80,79,0,78,0,79,0,79,0
$PKTHEAD,1,5162092,10
$VECINFO,1,0.00,0.00,0.00,0.00
$SNSYAW,100,0.200000,0,0.000000,1,0.000000,1,0.000000,1,0.000000,1
$SNSRAWYAW,100,0.000000,0,0.000000,0,0.000000,0,0.000000,0,0.160000,0
$SNSPULS,120,118,0,119,0,118,0,118,0
$PKTHEAD,2,5162093,3,2.483779,48.829359,41.00,22.62,79.94,1,10,1698745087531
$PKTHEAD,1,5162194,11
$VECINFO,1,0.00,0.00,0.00,0.00
$SNSYAW,100,0.600000,0,0.000000,1,0.000000,1,0.000000,1,0.000000,1
$SNSRAWYAW,100,0.160000,0,0.160000,0,0.240000,0,0.240000,0,0.400000,0
$SNSPULS,80,79,0,78,0,78,0,78,0
$PKTHEAD,1,5162295,12
$VECINFO,1,0.00,0.00,0.00,0.00
$SNSYAW,100,0.600000,0,0.000000,1,0.000000,1,0.000000,1,0.000000,1
$SNSRAWYAW,100,0.480000,0,0.480000,0,0.480000,0,0.640000,0,0.640000,0
$SNSPULS,120,117,0,118,0,118,0,118,0
$PKTHEAD,2,5162297,3,2.483839,48.829366,41.00,22.59,79.88,1,10,1698745087734
$PKTHEAD,1,5162392,13
$VECINFO,1,0.00,0.00,0.00,0.00
$SNSYAW,100,0.700000,0,0.000000,1,0.000000,1,0.000000,1,0.000000,1
$SNSRAWYAW,100,0.640000,0,0.480000,0,0.480000,0,0.640000,0,0.640000,0
$SNSPULS,80,79,0,79,0,78,0,78,0
$PKTHEAD,1,5162498,14
$VECINFO,1,0.00,0.00,0.00,0.00
$SNSYAW,100,0.700000,0,0.000000,1,0.000000,1,0.000000,1,0.000000,1
$SNSRAWYAW,100,0.640000,0,0.640000,0,0.640000,0,0.640000,0,0.640000,0
$SNSPULS,120,117,0,117,0,117,0,118,0
$PKTHEAD,2,5162499,3,2.483899,48.829374,41.00,22.56,79.78,1,10,1698745087937
$PKTHEAD,0,5162567,219
$GNGGA,093808.000,4849.7619,N,00229.0304,E,2,23,0.60,40.6,M,47.3,M,0.0,0*56
$GPGSA,A,3,07,11,30,20,04,09,06,16,26,,,,1.16,0.60,1.00,1*10
$GLGSA,A,3,65,75,81,83,82,67,76,66,,,,,1.16,0.60,1.00,2*08
$GAGSA,A,3,27,04,11,36,12,10,,,,,,,1.16,0.60,1.00,3*0B
$GPGSV,3,1,12,09,72,059,39.9,06,59,224,39.2,11,49,291,45.2,07,43,161,43.7,1*62
$GPGSV,3,2,12,04,37,061,40.4,49,33,176,41.0,20,30,299,44.2,30,18,186,31.4,1*6B
$GPGSV,3,3,12,16,08,061,34.4,03,08,111,14.4,26,07,035,29.8,29,03,345,12.0,1*68
$GLGSV,3,1,9,66,65,028,42.3,82,49,281,45.4,67,43,284,46.4,81,32,215,43.2,1*43
$GLGSV,3,2,9,76,29,108,37.9,75,27,042,46.1,83,25,330,33.5,65,19,073,38.7,1*46
$GLGSV,3,3,9,77,05,149,,1*78
$GAGSV,3,1,9,04,66,249,39.8,11,59,270,40.2,10,56,213,42.9,19,50,061,,7*57
$GAGSV,3,2,9,12,38,184,41.0,36,22,320,39.2,09,15,246,,21,11,090,,7*40
$GAGSV,3,3,9,27,11,040,31.4,7*63
$GNRMC,093808.000,A,4849.7619,N,00229.0304,E,43.663,79.54,311023,,,D,V*3A
$GNVTG,79.54,T,,M,43.663,N,80.908,K,D*14
$GNDTM,W84,,0.0,N,0.0,E,0.0,W84*71
$GNACCURACY,1.7,0.3,0.5,5.0*11
$GNGST,093808.000,2.8,2.5,2.2,139.6,2.4,2.3,5.0*71
$GPEPE,03.34,05.05*43
$GPGBS,093808.000,2.39,2.33,5.05,,,,,,*41
$PKTHEAD,1,5162595,15
$VECINFO,1,0.00,0.00,0.00,0.00
$SNSYAW,100,0.700000,0,0.000000,1,0.000000,1,0.000000,1,0.000000,1
$SNSRAWYAW,100,0.640000,0,0.640000,0,0.720000,0,0.720000,0,0.720000,0
$SNSPULS,80,79,0,79,0,79,0,78,0
$PKTHEAD,1,5162691,16
$VECINFO,1,0.00,0.00,0.00,0.00
$SNSYAW,100,0.700000,0,0.000000,1,0.000000,1,0.000000,1,0.000000,1
$SNSRAWYAW,100,0.640000,0,0.640000,0,0.640000,0,0.640000,0,0.640000,0
$SNSPULS,120,117,0,117,0,117,0,117,0
$PKTHEAD,2,5162692,3,2.483959,48.829381,40.00,22.51,79.60,1,10,1698745088124
$PKTHEAD,1,5162793,17
$VECINFO,1,0.00,0.00,0.00,0.00
$SNSYAW,100,0.600000,0,0.000000,1,0.000000,1,0.000000,1,0.000000,1
$SNSRAWYAW,100,0.640000,0,0.640000,0,0.480000,0,0.480000,0,0.480000,0
$SNSPULS,80,78,0,78,0,78,0,78,0
$PKTHEAD,1,5162890,18
$VECINFO,1,0.00,0.00,0.00,0.00
$SNSYAW,100,0.600000,0,0.000000,1,0.000000,1,0.000000,1,0.000000,1
$SNSRAWYAW,100,0.480000,0,0.480000,0,0.640000,0,0.640000,0,0.640000,0
$SNSPULS,120,117,0,117,0,117,0,117,0
$PKTHEAD,2,5162892,3,2.484019,48.829388,40.00,22.48,79.48,1,10,1698745088323
$PKTHEAD,1,5162992,19
$VECINFO,1,0.00,0.00,0.00,0.00
$SNSYAW,100,0.500000,0,0.000000,1,0.000000,1,0.000000,1,0.000000,1
$SNSRAWYAW,100,0.480000,0,0.640000,0,0.640000,0,0.480000,0,0.480000,0
$SNSPULS,80,78,0,79,0,77,0,78,0
$PKTHEAD,1,5163093,20
$VECINFO,1,0.00,0.00,0.00,0.00
$SNSYAW,100,0.600000,0,0.000000,1,0.000000,1,0.000000,1,0.000000,1
$SNSRAWYAW,100,0.480000,0,0.400000,0,0.400000,0,0.480000,0,0.480000,0
$SNSPULS,120,117,0,117,0,117,0,117,0
$PKTHEAD,2,5163094,3,2.484079,48.829395,40.00,22.42,79.38,1,10,1698745088526
$PKTHEAD,1,5163195,21
$VECINFO,1,0.00,0.00,0.00,0.00
$SNSYAW,100,0.600000,0,0.000000,1,0.000000,1,0.000000,1,0.000000,1
$SNSRAWYAW,100,0.480000,0,0.480000,0,0.480000,0,0.480000,0,0.480000,0
$SNSPULS,80,78,0,77,0,78,0,78,0
$PKTHEAD,1,5163291,22
$VECINFO,1,0.00,0.00,0.00,0.00
$SNSYAW,100,0.600000,0,0.000000,1,0.000000,1,0.000000,1,0.000000,1
$SNSRAWYAW,100,0.480000,0,0.480000,0,0.480000,0,0.640000,0,0.480000,0
$SNSPULS,120,116,0,117,0,116,0,116,0
$PKTHEAD,2,5163292,3,2.484139,48.829403,40.00,22.37,79.29,1,10,1698745088724
$PKTHEAD,1,5163393,23
$VECINFO,1,0.00,0.00,0.00,0.00
$SNSYAW,100,0.500000,0,0.000000,1,0.000000,1,0.000000,1,0.000000,1
$SNSRAWYAW,100,0.480000,0,0.480000,0,0.480000,0,0.640000,0,0.480000,0
$SNSPULS,80,78,0,78,0,78,0,78,0
$PKTHEAD,1,5163496,24
$VECINFO,1,0.00,0.00,0.00,0.00
$SNSYAW,100,0.500000,0,0.000000,1,0.000000,1,0.000000,1,0.000000,1
$SNSRAWYAW,100,0.480000,0,0.400000,0,0.400000,0,0.480000,0,0.480000,0
$SNSPULS,120,116,0,116,0,116,0,116,0
$PKTHEAD,2,5163497,3,2.484198,48.829410,40.00,22.34,79.20,1,10,1698745088929
$PKTHEAD,0,5163569,220
$GNGGA,093809.000,4849.7651,N,00229.0479,E,2,23,0.60,40.1,M,47.3,M,0.0,0*51
$GPGSA,A,3,07,11,30,20,04,09,06,16,26,,,,1.16,0.60,1.00,1*10
$GLGSA,A,3,65,75,81,83,82,67,76,66,,,,,1.16,0.60,1.00,2*08
$GAGSA,A,3,27,04,11,36,12,10,,,,,,,1.16,0.60,1.00,3*0B
$GPGSV,3,1,12,09,72,059,36.3,06,59,224,39.2,11,49,291,45.2,07,43,161,43.8,1*68
$GPGSV,3,2,12,04,37,061,39.9,49,33,176,41.0,20,30,299,44.2,30,18,186,33.8,1*66
$GPGSV,3,3,12,16,08,061,37.4,03,08,111,16.1,26,07,035,31.6,29,03,345,12.0,1*6B
$GLGSV,3,1,9,66,65,028,35.0,82,49,281,45.4,67,43,284,46.5,81,32,215,43.9,1*4A
$GLGSV,3,2,9,76,29,108,32.8,75,27,042,46.3,83,25,330,33.4,65,19,073,38.6,1*40
$GLGSV,3,3,9,77,05,149,,1*78
$GAGSV,3,1,9,04,66,249,39.8,11,59,270,40.3,10,56,213,42.8,19,50,061,,7*57
$GAGSV,3,2,9,12,38,184,40.4,36,22,320,39.2,09,15,246,,21,11,090,,7*45
$GAGSV,3,3,9,27,11,040,28.7,7*68
$GNRMC,093809.000,A,4849.7651,N,00229.0479,E,43.416,78.96,311023,,,D,V*35
$GNVTG,78.96,T,,M,43.416,N,80.450,K,D*1B
$GNDTM,W84,,0.0,N,0.0,E,0.0,W84*71
$GNACCURACY,1.8,0.3,0.2,4.9*11
$GNGST,093809.000,2.8,2.7,2.2,136.4,2.5,2.5,4.9*70
$GPEPE,03.53,04.86*48
$GPGBS,093809.000,2.51,2.48,4.86,,,,,,*48
$PKTHEAD,1,5163596,25
$VECINFO,1,0.00,0.00,0.00,0.00
$SNSYAW,100,0.500000,0,0.000000,1,0.000000,1,0.000000,1,0.000000,1
$SNSRAWYAW,100,0.400000,0,0.400000,0,0.400000,0,0.480000,0,0.480000,0
$SNSPULS,80,78,0,78,0,77,0,78,0
$PKTHEAD,1,5163692,26
$VECINFO,1,0.00,0.00,0.00,0.00
$SNSYAW,100,0.500000,0,0.000000,1,0.000000,1,0.000000,1,0.000000,1
$SNSRAWYAW,100,0.480000,0,0.400000,0,0.400000,0,0.400000,0,0.480000,0
$SNSPULS,120,116,0,116,0,116,0,116,0
$PKTHEAD,2,5163693,3,2.484256,48.829420,40.00,22.29,79.05,1,10,1698745089123
$PKTHEAD,1,5163793,27
$VECINFO,1,0.00,0.00,0.00,0.00
$SNSYAW,100,0.200000,0,0.000000,1,0.000000,1,0.000000,1,0.000000,1
$SNSRAWYAW,100,0.400000,0,0.400000,0,0.400000,0,0.240000,0,0.240000,0
$SNSPULS,80,78,0,78,0,78,0,77,0
$PKTHEAD,1,5163895,28
$VECINFO,1,0.00,0.00,0.00,0.00
$SNSYAW,100,0.200000,0,0.000000,1,0.000000,1,0.000000,1,0.000000,1
$SNSRAWYAW,100,0.160000,0,0.160000,0,0.160000,0,0.160000,0,0.000000,0
$SNSPULS,120,116,0,116,0,116,0,116,0
$PKTHEAD,2,5163897,3,2.484316,48.829427,40.00,22.26,78.99,1,10,1698745089326
$PKTHEAD,1,5163992,29
$VECINFO,1,0.00,0.00,0.00,0.00
$SNSYAW,100,0.100000,0,0.000000,1,0.000000,1,0.000000,1,0.000000,1
$SNSRAWYAW,100,0.000000,0,0.160000,0,0.160000,0,0.160000,0,0.000000,0
$SNSPULS,80,77,0,77,0,77,0,77,0
$PKTHEAD,1,5164093,30
$VECINFO,1,0.00,0.00,0.00,0.00
$SNSYAW,100,0.000000,0,0.000000,1,0.000000,1,0.000000,1,0.000000,1
$SNSRAWYAW,100,0.000000,0,0.000000,0,0.000000,0,0.000000,0,0.000000,0
$SNSPULS,120,116,0,116,0,115,0,116,0
$PKTHEAD,2,5164094,3,2.484375,48.829435,40.00,22.21,78.98,1,10,1698745089524
$PKTHEAD,1,5164194,31
$VECINFO,1,0.00,0.00,0.00,0.00
$SNSYAW,100,-0.100000,0,0.000000,1,0.000000,1,0.000000,1,0.000000,1
$SNSRAWYAW,100,0.000000,0,-0.080000,0,-0.080000,0,-0.080000,0,-0.240000,0
$SNSPULS,80,77,0,77,0,77,0,77,0
$PKTHEAD,1,5164291,32
$VECINFO,1,0.00,0.00,0.00,0.00
$SNSYAW,100,0.000000,0,0.000000,1,0.000000,1,0.000000,1,0.000000,1
$SNSRAWYAW,100,-0.240000,0,-0.240000,0,-0.080000,0,-0.080000,0,-0.080000,0
$SNSPULS,120,116,0,116,0,116,0,115,0
$PKTHEAD,2,5164292,3,2.484434,48.829443,40.00,22.18,78.98,1,10,1698745089722
$PKTHEAD,1,5164393,33
$VECINFO,1,0.00,0.00,0.00,0.00
$SNSYAW,100,-0.200000,0,0.000000,1,0.000000,1,0.000000,1,0.000000,1
$SNSRAWYAW,100,-0.240000,0,-0.080000,0,-0.080000,0,-0.240000,0,-0.320000,0
$SNSPULS,80,77,0,77,0,77,0,77,0
$PKTHEAD,1,5164494,34
$VECINFO,1,0.00,0.00,0.00,0.00
$SNSYAW,100,-0.200000,0,0.000000,1,0.000000,1,0.000000,1,0.000000,1
$SNSRAWYAW,100,-0.320000,0,-0.320000,0,-0.240000,0,-0.240000,0,-0.320000,0
$SNSPULS,120,115,0,115,0,115,0,116,0
$PKTHEAD,2,5164495,3,2.484493,48.829450,40.00,22.14,79.01,1,10,1698745089925
$PKTHEAD,0,5164589,221
$GNGGA,093810.000,4849.7665,N,00229.0654,E,2,24,0.58,39.3,M,47.3,M,0.0,0*53
$GPGSA,A,3,03,07,11,30,20,04,09,06,16,26,,,1.12,0.58,0.96,1*12
$GLGSA,A,3,65,75,81,83,82,67,76,66,,,,,1.12,0.58,0.96,2*09
$GAGSA,A,3,27,04,11,36,12,10,,,,,,,1.12,0.58,0.96,3*0A
$GPGSV,3,1,12,09,72,059,40.5,06,59,224,39.2,11,49,291,45.2,07,43,161,43.8,1*6F
$GPGSV,3,2,12,04,37,061,39.8,49,33,176,41.0,20,30,299,44.1,30,18,186,36.0,1*69
$GPGSV,3,3,12,16,08,061,34.6,03,08,111,33.0,26,07,035,32.8,29,03,345,12.4,1*65
$GLGSV,3,1,9,66,65,028,43.8,82,49,281,45.3,67,43,284,46.5,81,32,215,44.1,1*4B
$GLGSV,3,2,9,76,29,108,37.4,75,27,042,46.6,83,25,330,33.3,65,19,073,38.5,1*48
$GLGSV,3,3,9,77,05,149,,1*78
$GAGSV,3,1,9,04,66,249,39.8,11,59,270,40.3,10,56,213,42.9,19,50,061,,7*56
$GAGSV,3,2,9,12,38,184,40.6,36,22,320,39.2,09,15,246,,21,11,090,,7*47
$GAGSV,3,3,9,27,11,040,33.8,7*6D
$GNRMC,093810.000,A,4849.7665,N,00229.0654,E,42.991,78.82,311023,,,D,V*31
$GNVTG,78.82,T,,M,42.991,N,79.662,K,D*18
$GNDTM,W84,,0.0,N,0.0,E,0.0,W84*71
$GNACCURACY,1.7,0.4,0.4,4.8*1E
$GNGST,093810.000,2.8,2.5,2.1,144.0,2.3,2.2,4.8*78
$GPEPE,03.24,04.77*46
$GPGBS,093810.000,2.35,2.22,4.77,,,,,,*40
$PKTHEAD,1,5164596,35
$VECINFO,1,0.00,0.00,0.00,0.00
$SNSYAW,100,-0.200000,0,0.000000,1,0.000000,1,0.000000,1,0.000000,1
$SNSRAWYAW,100,-0.320000,0,-0.320000,0,-0.320000,0,-0.240000,0,-0.240000,0
$SNSPULS,80,77,0,77,0,77,0,76,0
$PKTHEAD,1,5164692,36
$VECINFO,1,0.00,0.00,0.00,0.00
$SNSYAW,100,-0.400000,0,0.000000,1,0.000000,1,0.000000,1,0.000000,1
$SNSRAWYAW,100,-0.320000,0,-0.320000,0,-0.320000,0,-0.320000,0,-0.480000,0
$SNSPULS,120,115,0,115,0,115,0,115,0
$PKTHEAD,2,5164693,3,2.484549,48.829458,39.00,22.10,78.99,1,10,1698745090103
$PKTHEAD,1,5164794,37
$VECINFO,1,0.00,0.00,0.00,0.00
$SNSYAW,100,-0.500000,0,0.000000,1,0.000000,1,0.000000,1,0.000000,1
$SNSRAWYAW,100,-0.480000,0,-0.480000,0,-0.560000,0,-0.560000,0,-0.480000,0
$SNSPULS,80,77,0,77,0,77,0,77,0
$PKTHEAD,1,5164896,38
$VECINFO,1,0.00,0.00,0.00,0.00
$SNSYAW,100,-0.400000,0,0.000000,1,0.000000,1,0.000000,1,0.000000,1
$SNSRAWYAW,100,-0.560000,0,-0.560000,0,-0.560000,0,-0.480000,0,-0.560000,0
$SNSPULS,120,115,0,115,0,114,0,115,0
$PKTHEAD,2,5164897,3,2.484608,48.829465,39.00,22.05,79.06,1,10,1698745090307
$PKTHEAD,1,5164991,39
$VECINFO,1,0.00,0.00,0.00,0.00
$SNSYAW,100,-0.500000,0,0.000000,1,0.000000,1,0.000000,1,0.000000,1
$SNSRAWYAW,100,-0.560000,0,-0.480000,0,-0.480000,0,-0.480000,0,-0.480000,0
$SNSPULS,80,77,0,77,0,77,0,76,0
$PKTHEAD,1,5165093,40
$VECINFO,1,0.00,0.00,0.00,0.00
$SNSYAW,100,-0.400000,0,0.000000,1,0.000000,1,0.000000,1,0.000000,1
$SNSRAWYAW,100,-0.560000,0,-0.560000,0,-0.560000,0,-0.560000,0,-0.560000,0
$SNSPULS,120,115,0,114,0,115,0,115,0
$PKTHEAD,2,5165094,3,2.484666,48.829473,39.00,22.03,79.14,1,10,1698745090504
$PKTHEAD,1,5165194,41
$VECINFO,1,0.00,0.00,0.00,0.00
$SNSYAW,100,-0.400000,0,0.000000,1,0.000000,1,0.000000,1,0.000000,1
$SNSRAWYAW,100,-0.560000,0,-0.480000,0,-0.480000,0,-0.320000,0,-0.480000,0
$SNSPULS,80,76,0,77,0,76,0,76,0
$PKTHEAD,1,5165290,42
$VECINFO,1,0.00,0.00,0.00,0.00
$SNSYAW,100,-0.400000,0,0.000000,1,0.000000,1,0.000000,1,0.000000,1
$SNSRAWYAW,100,-0.480000,0,-0.480000,0,-0.480000,0,-0.480000,0,-0.480000,0
$SNSPULS,120,115,0,114,0,115,0,114,0
$PKTHEAD,2,5165291,3,2.484725,48.829480,39.00,21.98,79.22,1,10,1698745090701
$PKTHEAD,1,5165393,43
$VECINFO,1,0.00,0.00,0.00,0.00
$SNSYAW,100,-0.500000,0,0.000000,1,0.000000,1,0.000000,1,0.000000,1
$SNSRAWYAW,100,-0.480000,0,-0.480000,0,-0.480000,0,-0.480000,0,-0.560000,0
$SNSPULS,80,76,0,77,0,76,0,77,0
$PKTHEAD,1,5165494,44
$VECINFO,1,0.00,0.00,0.00,0.00
$SNSYAW,100,-0.400000,0,0.000000,1,0.000000,1,0.000000,1,0.000000,1
$SNSRAWYAW,100,-0.560000,0,-0.560000,0,-0.480000,0,-0.320000,0,-0.480000,0
$SNSPULS,120,115,0,114,0,114,0,114,0
$PKTHEAD,2,5165495,3,2.484783,48.829487,39.00,21.94,79.31,1,10,1698745090905
$PKTHEAD,0,5165573,222
$GNGGA,093811.000,4849.7696,N,00229.0833,E,2,24,0.58,39.6,M,47.3,M,0.0,0*54
$GPGSA,A,3,03,07,11,30,20,04,09,06,16,26,,,1.12,0.58,0.96,1*12
$GLGSA,A,3,65,75,81,83,82,67,76,66,,,,,1.12,0.58,0.96,2*09
$GAGSA,A,3,27,04,11,36,12,10,,,,,,,1.12,0.58,0.96,3*0A
$GPGSV,3,1,12,09,72,059,40.6,06,59,224,39.1,11,49,291,45.2,07,43,161,43.9,1*6E
$GPGSV,3,2,12,04,37,061,40.1,49,33,176,41.0,20,30,299,44.1,30,18,186,42.5,1*68
$GPGSV,3,3,12,16,08,061,35.5,03,08,111,25.4,26,07,035,29.8,29,03,345,12.4,1*6E
$GLGSV,3,1,9,66,65,028,40.4,82,49,281,45.3,67,43,284,46.5,81,32,215,43.9,1*4B
$GLGSV,3,2,9,76,29,108,36.6,75,27,042,46.6,83,25,330,33.5,65,19,073,38.6,1*4E
$GLGSV,3,3,9,77,05,149,,1*78
$GAGSV,3,1,9,04,66,249,39.7,11,59,270,40.3,10,56,213,42.9,19,50,061,,7*59
$GAGSV,3,2,9,12,38,184,41.0,36,22,320,39.1,09,15,246,,21,11,090,,7*43
$GAGSV,3,3,9,27,11,040,33.1,7*64
$GNRMC,093811.000,A,4849.7696,N,00229.0833,E,42.322,79.25,311023,,,D,V*3D
$GNVTG,79.25,T,,M,42.322,N,78.422,K,D*11
$GNDTM,W84,,0.0,N,0.0,E,0.0,W84*71
$GNACCURACY,1.7,0.5,0.5,4.9*1F
$GNGST,093811.000,2.8,2.4,2.1,134.1,2.2,2.2,4.9*7E
$GPEPE,03.15,04.91*4C
$GPGBS,093811.000,2.22,2.23,4.91,,,,,,*4E
$PKTHEAD,1,5165596,45
$VECINFO,1,0.00,0.00,0.00,0.00
$SNSYAW,100,-0.500000,0,0.000000,1,0.000000,1,0.000000,1,0.000000,1
$SNSRAWYAW,100,-0.480000,0,-0.480000,0,-0.480000,0,-0.560000,0,-0.560000,0
$SNSPULS,80,76,0,76,0,76,0,76,0
$PKTHEAD,1,5165693,46
$VECINFO,1,0.00,0.00,0.00,0.00
$SNSYAW,100,-0.400000,0,0.000000,1,0.000000,1,0.000000,1,0.000000,1
$SNSRAWYAW,100,-0.560000,0,-0.560000,0,-0.480000,0,-0.480000,0,-0.320000,0
$SNSPULS,120,114,0,115,0,114,0,114,0
$PKTHEAD,2,5165694,3,2.484841,48.829497,39.00,21.90,79.38,1,10,1698745091120
$PKTHEAD,1,5165794,47
$VECINFO,1,0.00,0.00,0.00,0.00
$SNSYAW,100,-0.200000,0,0.000000,1,0.000000,1,0.000000,1,0.000000,1
$SNSRAWYAW,100,-0.480000,0,-0.480000,0,-0.320000,0,-0.320000,0,-0.480000,0
$SNSPULS,80,76,0,76,0,76,0,76,0
$PKTHEAD,1,5165896,48
$VECINFO,1,0.00,0.00,0.00,0.00
$SNSYAW,100,-0.400000,0,0.000000,1,0.000000,1,0.000000,1,0.000000,1
$SNSRAWYAW,100,-0.480000,0,-0.320000,0,-0.320000,0,-0.320000,0,-0.320000,0
$SNSPULS,120,115,0,114,0,114,0,114,0
$PKTHEAD,2,5165897,3,2.484899,48.829504,39.00,21.87,79.43,1,10,1698745091323
$PKTHEAD,1,5165991,49
$VECINFO,1,0.00,0.00,0.00,0.00
$SNSYAW,100,-0.400000,0,0.000000,1,0.000000,1,0.000000,1,0.000000,1
$SNSRAWYAW,100,-0.480000,0,-0.480000,0,-0.480000,0,-0.480000,0,-0.480000,0
$SNSPULS,80,76,0,76,0,76,0,76,0
$PKTHEAD,1,5166092,50
$VECINFO,1,0.00,0.00,0.00,0.00
$SNSYAW,100,-0.200000,0,0.000000,1,0.000000,1,0.000000,1,0.000000,1
$SNSRAWYAW,100,-0.480000,0,-0.480000,0,-0.480000,0,-0.480000,0,-0.480000,0
$SNSPULS,120,114,0,114,0,114,0,114,0
$PKTHEAD,2,5166093,3,2.484958,48.829511,39.00,21.83,79.51,1,10,1698745091519
$PKTHEAD,1,5166193,51
$VECINFO,1,0.00,0.00,0.00,0.00
$SNSYAW,100,-0.400000,0,0.000000,1,0.000000,1,0.000000,1,0.000000,1
$SNSRAWYAW,100,-0.320000,0,-0.320000,0,-0.320000,0,-0.320000,0,-0.480000,0
$SNSPULS,80,76,0,77,0,76,0,76,0
$PKTHEAD,1,5166291,52
$VECINFO,1,0.00,0.00,0.00,0.00
$SNSYAW,100,-0.200000,0,0.000000,1,0.000000,1,0.000000,1,0.000000,1
$SNSRAWYAW,100,-0.480000,0,-0.480000,0,-0.480000,0,-0.480000,0,-0.480000,0
$SNSPULS,120,115,0,114,0,114,0,114,0
$PKTHEAD,2,5166293,3,2.485016,48.829518,39.00,21.82,79.58,1,10,1698745091718
$PKTHEAD,1,5166393,53
$VECINFO,1,0.00,0.00,0.00,0.00
$SNSYAW,100,-0.400000,0,0.000000,1,0.000000,1,0.000000,1,0.000000,1
$SNSRAWYAW,100,-0.480000,0,-0.320000,0,-0.320000,0,-0.320000,0,-0.480000,0
$SNSPULS,80,76,0,76,0,76,0,76,0
$PKTHEAD,1,5166494,54
$VECINFO,1,0.00,0.00,0.00,0.00
$SNSYAW,100,-0.200000,0,0.000000,1,0.000000,1,0.000000,1,0.000000,1
$SNSRAWYAW,100,-0.480000,0,-0.480000,0,-0.480000,0,-0.480000,0,-0.320000,0
$SNSPULS,120,114,0,114,0,114,0,114,0
$PKTHEAD,2,5166497,3,2.485075,48.829525,39.00,21.81,79.65,1,10,1698745091921
$PKTHEAD,1,5166591,55
$VECINFO,1,0.00,0.00,0.00,0.00
$SNSYAW,100,-0.200000,0,0.000000,1,0.000000,1,0.000000,1,0.000000,1
$SNSRAWYAW,100,-0.320000,0,-0.320000,0,-0.320000,0,-0.320000,0,-0.320000,0
$SNSPULS,80,76,0,76,0,77,0,76,0
$PKTHEAD,0,5166591,223
$GNGGA,093812.000,4849.7721,N,00229.1008,E,2,23,0.59,39.9,M,47.3,M,0.0,0*52
$GPGSA,A,3,03,07,11,30,20,04,09,06,16,,,,1.15,0.59,0.99,1*1F
$GLGSA,A,3,65,75,81,83,82,67,76,66,,,,,1.15,0.59,0.99,2*00
$GAGSA,A,3,27,04,11,36,12,10,,,,,,,1.15,0.59,0.99,3*03
$GPGSV,3,1,12,09,72,059,40.9,06,59,224,38.9,11,49,291,45.2,07,43,161,43.7,1*66
$GPGSV,3,2,12,04,37,061,39.9,49,33,176,41.0,20,30,299,44.1,30,18,186,44.9,1*64
$GPGSV,3,3,12,16,08,061,34.6,03,08,111,20.0,26,07,035,,29,03,345,12.7,1*73
$GLGSV,3,1,9,66,65,028,41.0,82,49,281,45.2,67,43,284,46.5,81,32,215,44.1,1*40
$GLGSV,3,2,9,76,29,108,37.1,75,27,042,46.4,83,25,330,33.5,65,19,073,38.6,1*4A
$GLGSV,3,3,9,77,05,149,,1*78
$GAGSV,3,1,9,04,66,249,39.7,11,59,270,40.3,10,56,213,42.9,19,50,061,,7*59
$GAGSV,3,2,9,12,38,184,40.7,36,22,320,38.9,09,15,246,,21,11,090,,7*4C
$GAGSV,3,3,9,27,11,040,31.7,7*60
$GNRMC,093812.000,A,4849.7721,N,00229.1008,E,42.286,79.72,311023,,,D,V*3F
$GNVTG,79.72,T,,M,42.286,N,78.356,K,D*18
$GNDTM,W84,,0.0,N,0.0,E,0.0,W84*71
$GNACCURACY,1.7,0.5,0.4,5.0*16
$GNGST,093812.000,2.8,2.4,2.1,129.6,2.2,2.3,5.0*7F
$GPEPE,03.19,05.00*49
$GPGBS,093812.000,2.23,2.28,5.00,,,,,,*4E
$PKTHEAD,1,5166692,56
$VECINFO,1,0.00,0.00,0.00,0.00
$SNSYAW,100,-0.400000,0,0.000000,1,0.000000,1,0.000000,1,0.000000,1
$SNSRAWYAW,100,-0.320000,0,-0.320000,0,-0.320000,0,-0.320000,0,-0.320000,0
$SNSPULS,120,115,0,115,0,114,0,114,0
$PKTHEAD,2,5166693,3,2.485132,48.829535,39.00,21.82,79.72,1,10,1698745092101
$PKTHEAD,1,5166794,57
$VECINFO,1,0.00,0.00,0.00,0.00
$SNSYAW,100,-0.200000,0,0.000000,1,0.000000,1,0.000000,1,0.000000,1
$SNSRAWYAW,100,-0.480000,0,-0.480000,0,-0.320000,0,-0.320000,0,-0.480000,0
$SNSPULS,80,76,0,76,0,76,0,76,0
$PKTHEAD,1,5166895,58
$VECINFO,1,0.00,0.00,0.00,0.00
$SNSYAW,100,-0.500000,0,0.000000,1,0.000000,1,0.000000,1,0.000000,1
$SNSRAWYAW,100,-0.320000,0,-0.320000,0,-0.320000,0,-0.320000,0,-0.480000,0
$SNSPULS,120,115,0,114,0,114,0,114,0
$PKTHEAD,2,5166896,3,2.485191,48.829542,39.00,21.82,79.79,1,10,1698745092304
$PKTHEAD,1,5166991,59
$VECINFO,1,0.00,0.00,0.00,0.00
$SNSYAW,100,-0.400000,0,0.000000,1,0.000000,1,0.000000,1,0.000000,1
$SNSRAWYAW,100,-0.480000,0,-0.560000,0,-0.480000,0,-0.480000,0,-0.320000,0
$SNSPULS,80,76,0,77,0,76,0,76,0
$PKTHEAD,1,5167092,60
$VECINFO,1,0.00,0.00,0.00,0.00
$SNSYAW,100,-0.200000,0,0.000000,1,0.000000,1,0.000000,1,0.000000,1
